store_number,store_number_padded,store_name,full_address,raw_address_from_public_feed,city,state,postal_code,latitude,longitude,address_present,address_source_url,location_source_url
105,105,Duluth,,,Duluth,GA,0,33.949,-84.133,no,,https://simplemaps.com/data/business/home-depot
106,106,Kennesaw,"449 Roberts Ct Nw, Kennesaw GA 30144","449 Roberts Ct Nw, Kennesaw GA",Kennesaw,GA,30144,34.007,-84.563,yes,https://serpapi.com/home-depot-stores-us.json,https://simplemaps.com/data/business/home-depot
110,110,Lilburn,"4121 Hwy 78, Lilburn GA 30047","4121 Hwy 78, Lilburn GA",Lilburn,GA,30047,33.837,-84.074,yes,https://serpapi.com/home-depot-stores-us.json,https://simplemaps.com/data/business/home-depot
111,111,Merchants Walk,"4101 Roswell Rd, Merchants Walk GA 30062","4101 Roswell Rd, Merchants Walk GA",Marietta,GA,30062,33.98,-84.433,yes,https://serpapi.com/home-depot-stores-us.json,https://simplemaps.com/data/business/home-depot
114,114,Morrow,"2034 Mt Zion Rd, Morrow GA 30260","2034 Mt Zion Rd, Morrow GA",Morrow,GA,30260,33.564,-84.323,yes,https://serpapi.com/home-depot-stores-us.json,https://simplemaps.com/data/business/home-depot
115,115,Tilly Mill,"4343 Tilly Mill Rd, Tilly Mill GA 30360","4343 Tilly Mill Rd, Tilly Mill GA",Atlanta,GA,30360,33.922,-84.279,yes,https://serpapi.com/home-depot-stores-us.json,https://simplemaps.com/data/business/home-depot
116,116,Woodstock,"9037 Hwy 92, Ste 100, Woodstock GA 30189","9037 Hwy 92, Ste 100, Woodstock GA",Woodstock,GA,30189,34.087,-84.538,yes,https://serpapi.com/home-depot-stores-us.json,https://simplemaps.com/data/business/home-depot
117,117,Wages Drive,,,Decatur,GA,0,33.813,-84.269,no,,https://simplemaps.com/data/business/home-depot
118,118,Wesley Chapel,"4325 New Snapfinger Woods Dr, Wesley Chapel GA 30035","4325 New Snapfinger Woods Dr, Wesley Chapel GA",Decatur,GA,30035,33.714,-84.213,yes,https://serpapi.com/home-depot-stores-us.json,https://simplemaps.com/data/business/home-depot
119,119,Augusta,"499 Bobby Jones Expy Ste B, Augusta GA 30907","499 Bobby Jones Expy Ste B, Augusta GA",Augusta,GA,30907,33.501,-82.09,yes,https://serpapi.com/home-depot-stores-us.json,https://simplemaps.com/data/business/home-depot
121,121,Cumberland,"2450 Cumberland Pkwy, Cumberland GA 30339","2450 Cumberland Pkwy, Cumberland GA",Atlanta,GA,30339,33.862,-84.477,yes,https://serpapi.com/home-depot-stores-us.json,https://simplemaps.com/data/business/home-depot
122,122,Savannah,"11180 Abercorn St, Savannah GA 31419","11180 Abercorn St, Savannah GA",Savannah,GA,31419,31.983,-81.144,yes,https://serpapi.com/home-depot-stores-us.json,https://simplemaps.com/data/business/home-depot
123,123,Jonesboro,"3885 Jonesboro Rd, Jonesboro GA 30354","3885 Jonesboro Rd, Jonesboro GA",Atlanta,GA,30354,33.649,-84.368,yes,https://serpapi.com/home-depot-stores-us.json,https://simplemaps.com/data/business/home-depot
126,126,Lawrenceville,"875 Lawrenceville-suwanee Rd, Lawrenceville GA 30043","875 Lawrenceville-suwanee Rd, Lawrenceville GA",Lawrenceville,GA,30043,33.971,-84.017,yes,https://serpapi.com/home-depot-stores-us.json,https://simplemaps.com/data/business/home-depot
127,127,Fayetteville,"103 Pavillion Pkwy, Fayetteville, GA GA 30214","103 Pavillion Pkwy, Fayetteville, GA GA",Fayetteville,GA,30214,33.482,-84.437,yes,https://serpapi.com/home-depot-stores-us.json,https://simplemaps.com/data/business/home-depot
128,128,Conyers,"1330 Dogwood Dr, Conyers GA 30013","1330 Dogwood Dr, Conyers GA",Conyers,GA,30013,33.654,-84.0,yes,https://serpapi.com/home-depot-stores-us.json,https://simplemaps.com/data/business/home-depot
129,129,Athens,"1740 Epps Bridge Rd, Athens GA 30606","1740 Epps Bridge Rd, Athens GA",Athens,GA,30606,33.915,-83.446,yes,https://serpapi.com/home-depot-stores-us.json,https://simplemaps.com/data/business/home-depot
130,130,Cascade,"1032 Research Ctr Atlanta Dr, Cascade GA 30331","1032 Research Ctr Atlanta Dr, Cascade GA",Atlanta,GA,30331,33.729,-84.504,yes,https://serpapi.com/home-depot-stores-us.json,https://simplemaps.com/data/business/home-depot
131,131,N Fulton,"5950 State Bridge Rd, N Fulton GA 30097","5950 State Bridge Rd, N Fulton GA",Duluth,GA,30097,34.013,-84.186,yes,https://serpapi.com/home-depot-stores-us.json,https://simplemaps.com/data/business/home-depot
132,132,Carrollton,"1332 S Park St, Carrollton, GA GA 30117","1332 S Park St, Carrollton, GA GA",Carrollton,GA,30117,33.553,-85.072,yes,https://serpapi.com/home-depot-stores-us.json,https://simplemaps.com/data/business/home-depot
133,133,Cartersville,"100 Gentilly Blvd, Cartersville GA 30120","100 Gentilly Blvd, Cartersville GA",Cartersville,GA,30120,34.186,-84.788,yes,https://serpapi.com/home-depot-stores-us.json,https://simplemaps.com/data/business/home-depot
134,134,Cumming,"1000 Market Pl Blvd, Cumming GA 30041","1000 Market Pl Blvd, Cumming GA",Cumming,GA,30041,34.18,-84.13,yes,https://serpapi.com/home-depot-stores-us.json,https://simplemaps.com/data/business/home-depot
136,136,Columbus,"2891 Sowega Dr, Columbus GA 31909","2891 Sowega Dr, Columbus GA",Columbus,GA,31909,32.525,-84.949,yes,https://serpapi.com/home-depot-stores-us.json,https://simplemaps.com/data/business/home-depot
137,137,Dalton,"875 Shugart, Dalton GA 30720","875 Shugart, Dalton GA",Dalton,GA,30720,34.79,-84.999,yes,https://serpapi.com/home-depot-stores-us.json,https://simplemaps.com/data/business/home-depot
138,138,Griffin,"1435 Highway 16 W, Griffin GA 30223","1435 Highway 16 W, Griffin GA",Griffin,GA,30223,33.249,-84.289,yes,https://serpapi.com/home-depot-stores-us.json,https://simplemaps.com/data/business/home-depot
139,139,Rome,"103 Hicks Dr, Rome GA 30161","103 Hicks Dr, Rome GA",Rome,GA,30161,34.254,-85.162,yes,https://serpapi.com/home-depot-stores-us.json,https://simplemaps.com/data/business/home-depot
140,140,Valdosta,"1825 Norman Dr, Valdosta GA 31601","1825 Norman Dr, Valdosta GA",Valdosta,GA,31601,30.845,-83.316,yes,https://serpapi.com/home-depot-stores-us.json,https://simplemaps.com/data/business/home-depot
141,141,Brunswick,"200 Altama Connector, Brunswick GA 31520","200 Altama Connector, Brunswick GA",Brunswick,GA,31520,31.212,-81.489,yes,https://serpapi.com/home-depot-stores-us.json,https://simplemaps.com/data/business/home-depot
143,143,Douglasville,"7399 Douglas Blvd, Douglasville GA 30135","7399 Douglas Blvd, Douglasville GA",Douglasville,GA,30135,33.723,-84.766,yes,https://serpapi.com/home-depot-stores-us.json,https://simplemaps.com/data/business/home-depot
144,144,Snellville,"1670 Scenic Hwy North, Snellville GA 30078","1670 Scenic Hwy North, Snellville GA",Snellville,GA,30078,33.882,-84.01,yes,https://serpapi.com/home-depot-stores-us.json,https://simplemaps.com/data/business/home-depot
145,145,Canton,"2200 Riverstone Blvd, Canton, GA GA 30114","2200 Riverstone Blvd, Canton, GA GA",Canton,GA,30114,34.254,-84.473,yes,https://serpapi.com/home-depot-stores-us.json,https://simplemaps.com/data/business/home-depot
146,146,NW Roswell/Westwind,"870 Woodstock Rd, Nw Roswell/Westwind GA 30075","870 Woodstock Rd, Nw Roswell/Westwind GA",Roswell,GA,30075,34.059,-84.386,yes,https://serpapi.com/home-depot-stores-us.json,https://simplemaps.com/data/business/home-depot
147,147,Buford,"4120 Hwy 20, Buford GA 30518","4120 Hwy 20, Buford GA",Buford,GA,30518,34.091,-84.002,yes,https://serpapi.com/home-depot-stores-us.json,https://simplemaps.com/data/business/home-depot
148,148,Newnan,"1100 Bullsboro Dr, Newnan GA 30265","1100 Bullsboro Dr, Newnan GA",Newnan,GA,30265,33.398,-84.743,yes,https://serpapi.com/home-depot-stores-us.json,https://simplemaps.com/data/business/home-depot
149,149,Alpharetta,"5300 Windward Pkwy, Alpharetta GA 30004","5300 Windward Pkwy, Alpharetta GA",Alpharetta,GA,30004,34.091,-84.274,yes,https://serpapi.com/home-depot-stores-us.json,https://simplemaps.com/data/business/home-depot
151,151,Paulding County,"145 Depot Dr, Paulding County GA 30141","145 Depot Dr, Paulding County GA",Hiram,GA,30141,33.888,-84.752,yes,https://serpapi.com/home-depot-stores-us.json,https://simplemaps.com/data/business/home-depot
152,152,Gainesville,"924 Dawsonville Hwy, Gainesville, GA GA 30501","924 Dawsonville Hwy, Gainesville, GA GA",Gainesville,GA,30501,34.3,-83.855,yes,https://serpapi.com/home-depot-stores-us.json,https://simplemaps.com/data/business/home-depot
153,153,West Cobb,"2350 Dallas Hwy, West Cobb GA 30064","2350 Dallas Hwy, West Cobb GA",Marietta,GA,30064,33.948,-84.62,yes,https://serpapi.com/home-depot-stores-us.json,https://simplemaps.com/data/business/home-depot
154,154,Sandy Springs,"6400 Peachtree Dunwoody Rd, Sandy Springs GA 30328","6400 Peachtree Dunwoody Rd, Sandy Springs GA",Sandy Springs,GA,30328,33.929,-84.355,yes,https://serpapi.com/home-depot-stores-us.json,https://simplemaps.com/data/business/home-depot
155,155,Albany,"1219 Westover Blvd, Albany, GA GA 31707","1219 Westover Blvd, Albany, GA GA",Albany,GA,31707,31.617,-84.207,yes,https://serpapi.com/home-depot-stores-us.json,https://simplemaps.com/data/business/home-depot
156,156,Acworth,"3355 Cobb Pkwy, Acworth GA 30101","3355 Cobb Pkwy, Acworth GA",Acworth,GA,30101,34.035,-84.685,yes,https://serpapi.com/home-depot-stores-us.json,https://simplemaps.com/data/business/home-depot
157,157,Mcdonough,"1750 Jonesboro Rd, Mcdonough GA 30253","1750 Jonesboro Rd, Mcdonough GA",Mcdonough,GA,30253,33.465,-84.213,yes,https://serpapi.com/home-depot-stores-us.json,https://simplemaps.com/data/business/home-depot
159,159,Midtown,"650 Ponce De Leon, Midtown GA 30308","650 Ponce De Leon, Midtown GA",Atlanta,GA,30308,33.774,-84.368,yes,https://serpapi.com/home-depot-stores-us.json,https://simplemaps.com/data/business/home-depot
160,160,Lagrange,"1500 Lafayette Pkwy, Lagrange GA 30241","1500 Lafayette Pkwy, Lagrange GA",Lagrange,GA,30241,33.04,-84.981,yes,https://serpapi.com/home-depot-stores-us.json,https://simplemaps.com/data/business/home-depot
161,161,Hamilton Mill,"2120 Hamilton Creek Pkwy, Hamilton Mill GA 30019","2120 Hamilton Creek Pkwy, Hamilton Mill GA",Dacula,GA,30019,34.073,-83.914,yes,https://serpapi.com/home-depot-stores-us.json,https://simplemaps.com/data/business/home-depot
163,163,Warner Robins,"2620 Watson Blvd, Warner Robins GA 31093","2620 Watson Blvd, Warner Robins GA",Warner Robins,GA,31093,32.619,-83.667,yes,https://serpapi.com/home-depot-stores-us.json,https://simplemaps.com/data/business/home-depot
164,164,Peachtree City,"2715 Hwy 54 West, Peachtree City GA 30269","2715 Hwy 54 West, Peachtree City GA",Peachtree City,GA,30269,33.398,-84.589,yes,https://serpapi.com/home-depot-stores-us.json,https://simplemaps.com/data/business/home-depot
165,165,Covington,"13171 Highway 142 Northwest, Covington,GA GA 30014","13171 Highway 142 Northwest, Covington,GA GA",Covington,GA,30014,33.615,-83.826,yes,https://serpapi.com/home-depot-stores-us.json,https://simplemaps.com/data/business/home-depot
170,170,East Savannah,"1901 E Victory Drive, East Savannah GA 31404","1901 E Victory Drive, East Savannah GA",Savannah,GA,31404,32.042,-81.068,yes,https://serpapi.com/home-depot-stores-us.json,https://simplemaps.com/data/business/home-depot
172,172,Loganville,"4141 Atlanta Hwy, Loganville GA 30052","4141 Atlanta Hwy, Loganville GA",Loganville,GA,30052,33.843,-83.912,yes,https://serpapi.com/home-depot-stores-us.json,https://simplemaps.com/data/business/home-depot
174,174,Dawsonville,"226 Power Center Dr, Dawsonville GA 30534","226 Power Center Dr, Dawsonville GA",Dawsonville,GA,30534,34.357,-84.042,yes,https://serpapi.com/home-depot-stores-us.json,https://simplemaps.com/data/business/home-depot
175,175,Tucker,"4136 Jimmy Carter Blvd, Tucker GA 30093","4136 Jimmy Carter Blvd, Tucker GA",Norcross,GA,30093,33.869,-84.19,yes,https://serpapi.com/home-depot-stores-us.json,https://simplemaps.com/data/business/home-depot
178,178,Riverdale,"680 Lamar Hutcheson Parkway, Riverdale, GA GA 30274","680 Lamar Hutcheson Parkway, Riverdale, GA GA",Riverdale,GA,30274,33.559,-84.412,yes,https://serpapi.com/home-depot-stores-us.json,https://simplemaps.com/data/business/home-depot
179,179,Pooler,"190 Pooler Pkwy, Pooler GA 31322","190 Pooler Pkwy, Pooler GA",Pooler,GA,31322,32.143,-81.245,yes,https://serpapi.com/home-depot-stores-us.json,https://simplemaps.com/data/business/home-depot
201,201,Port Charlotte,"19690 Cochran Blvd, Port Charlotte FL 33948","19690 Cochran Blvd, Port Charlotte FL",Port Charlotte,FL,33948,27.015,-82.136,yes,https://serpapi.com/home-depot-stores-us.json,https://simplemaps.com/data/business/home-depot
202,202,Hialeah,"1590 W 49th St, Hialeah FL 33012","1590 W 49th St, Hialeah FL",Hialeah,FL,33012,25.865,-80.314,yes,https://serpapi.com/home-depot-stores-us.json,https://simplemaps.com/data/business/home-depot
203,203,Lake Wales,"24201 North Us Hwy 27, Lake Wales FL 33859","24201 North Us Hwy 27, Lake Wales FL",Lake Wales,FL,33859,27.963,-81.623,yes,https://serpapi.com/home-depot-stores-us.json,https://simplemaps.com/data/business/home-depot
204,204,Boca Raton,"9820 Glades Rd, Boca Raton FL 33434","9820 Glades Rd, Boca Raton FL",Boca Raton,FL,33434,26.366,-80.2,yes,https://serpapi.com/home-depot-stores-us.json,https://simplemaps.com/data/business/home-depot
205,205,Lake Worth,"4241 Lake Worth Rd, Lake Worth FL 33461","4241 Lake Worth Rd, Lake Worth FL",Lake Worth Beach,FL,33461,26.619,-80.11,yes,https://serpapi.com/home-depot-stores-us.json,https://simplemaps.com/data/business/home-depot
206,206,West Dade,"11305 Sw 40th St, West Dade FL 33165","11305 Sw 40th St, West Dade FL",Miami,FL,33165,25.734,-80.378,yes,https://serpapi.com/home-depot-stores-us.json,https://simplemaps.com/data/business/home-depot
207,207,Cutler Ridge,"19400 Sw 106th Ave, Cutler Ridge FL 33157","19400 Sw 106th Ave, Cutler Ridge FL",Miami,FL,33157,25.585,-80.366,yes,https://serpapi.com/home-depot-stores-us.json,https://simplemaps.com/data/business/home-depot
208,208,Pompano Beach,"1151 Nw Copans Rd, Pompano Beach FL 33064","1151 Nw Copans Rd, Pompano Beach FL",Pompano Beach,FL,33064,26.261,-80.139,yes,https://serpapi.com/home-depot-stores-us.json,https://simplemaps.com/data/business/home-depot
209,209,NW Dade,"5500 Nw 167th St, Nw Dade FL 33014","5500 Nw 167th St, Nw Dade FL",Hialeah,FL,33014,25.924,-80.29,yes,https://serpapi.com/home-depot-stores-us.json,https://simplemaps.com/data/business/home-depot
210,210,Kendall,"12700 Sw 88th St, Kendall FL 33186","12700 Sw 88th St, Kendall FL",Miami,FL,33186,25.686,-80.401,yes,https://serpapi.com/home-depot-stores-us.json,https://simplemaps.com/data/business/home-depot
213,213,Vero Beach,"1885 58th Ave, Vero Beach FL 32966","1885 58th Ave, Vero Beach FL",Vero Beach,FL,32966,27.637,-80.448,yes,https://serpapi.com/home-depot-stores-us.json,https://simplemaps.com/data/business/home-depot
218,218,Deerfield Beach,"60 Sw 12th Ave, Deerfield Beach FL 33442","60 Sw 12th Ave, Deerfield Beach FL",Deerfield Beach,FL,33442,26.316,-80.118,yes,https://serpapi.com/home-depot-stores-us.json,https://simplemaps.com/data/business/home-depot
220,220,Lake Park,"3860 Northlake Blvd, Lake Park FL 33403","3860 Northlake Blvd, Lake Park FL",Palm Beach Gardens,FL,33403,26.805,-80.095,yes,https://serpapi.com/home-depot-stores-us.json,https://simplemaps.com/data/business/home-depot
221,221,Jensen Beach,"3451 Nw Federal Hwy, Jensen Beach FL 34957","3451 Nw Federal Hwy, Jensen Beach FL",Jensen Beach,FL,34957,27.248,-80.27,yes,https://serpapi.com/home-depot-stores-us.json,https://simplemaps.com/data/business/home-depot
222,222,Davie,"2300 S University Dr, Davie FL 33324","2300 S University Dr, Davie FL",Davie,FL,33324,26.093,-80.251,yes,https://serpapi.com/home-depot-stores-us.json,https://simplemaps.com/data/business/home-depot
224,224,Boynton Beach,"1500 Sw 8th St, Boynton Beach FL 33426","1500 Sw 8th St, Boynton Beach FL",Boynton Beach,FL,33426,26.516,-80.075,yes,https://serpapi.com/home-depot-stores-us.json,https://simplemaps.com/data/business/home-depot
226,226,Southside,"9021 Southside Blvd, Southside FL 32256","9021 Southside Blvd, Southside FL",Jacksonville,FL,32256,30.196,-81.549,yes,https://serpapi.com/home-depot-stores-us.json,https://simplemaps.com/data/business/home-depot
232,232,Southland,"7423 Southland Blvd, Southland FL 32809","7423 Southland Blvd, Southland FL",Orlando,FL,32809,28.455,-81.402,yes,https://serpapi.com/home-depot-stores-us.json,https://simplemaps.com/data/business/home-depot
233,233,Daytona Beach,"2455 W Int'l Speedway Blvd, Daytona Beach FL 32114","2455 W Int'l Speedway Blvd, Daytona Beach FL",Daytona Beach,FL,32114,29.18,-81.078,yes,https://serpapi.com/home-depot-stores-us.json,https://simplemaps.com/data/business/home-depot
234,234,Merritt Island,"200 N Courtenay Pkwy, Merritt Island FL 32953","200 N Courtenay Pkwy, Merritt Island FL",Merritt Island,FL,32953,28.359,-80.699,yes,https://serpapi.com/home-depot-stores-us.json,https://simplemaps.com/data/business/home-depot
238,238,Port Richey,"10017 Us Hwy 19, Port Richey FL 34668","10017 Us Hwy 19, Port Richey FL",Port Richey,FL,34668,28.303,-82.706,yes,https://serpapi.com/home-depot-stores-us.json,https://simplemaps.com/data/business/home-depot
243,243,Brandon,"9941 E Adamo Dr, Brandon FL 33619","9941 E Adamo Dr, Brandon FL",Tampa,FL,33619,27.944,-82.34,yes,https://serpapi.com/home-depot-stores-us.json,https://simplemaps.com/data/business/home-depot
244,244,Bradenton,"2350 Cortez Rd West, Bradenton FL 34207","2350 Cortez Rd West, Bradenton FL",Bradenton,FL,34207,27.463,-82.585,yes,https://serpapi.com/home-depot-stores-us.json,https://simplemaps.com/data/business/home-depot
245,245,Carrollwood,"16121 N Dale Mabry Hwy, Carrollwood FL 33618","16121 N Dale Mabry Hwy, Carrollwood FL",Tampa,FL,33618,28.098,-82.501,yes,https://serpapi.com/home-depot-stores-us.json,https://simplemaps.com/data/business/home-depot
247,247,Palm Harbor,"30144 Us Hwy 19 N, Palm Harbor FL 33761","30144 Us Hwy 19 N, Palm Harbor FL",Clearwater,FL,33761,28.046,-82.74,yes,https://serpapi.com/home-depot-stores-us.json,https://simplemaps.com/data/business/home-depot
248,248,Lakeland,"2805 Us Highway 98 N, Lakeland FL 33805","2805 Us Highway 98 N, Lakeland FL",Lakeland,FL,33805,28.079,-81.962,yes,https://serpapi.com/home-depot-stores-us.json,https://simplemaps.com/data/business/home-depot
249,249,Oakland Park,"1701 W Oakland Park Blvd, Oakland Park FL 33311","1701 W Oakland Park Blvd, Oakland Park FL",Oakland Park,FL,33311,26.168,-80.165,yes,https://serpapi.com/home-depot-stores-us.json,https://simplemaps.com/data/business/home-depot
251,251,N Miami Beach,"1245 Ne 163rd St, N Miami Beach FL 33162","1245 Ne 163rd St, N Miami Beach FL",Miami,FL,33162,25.926,-80.175,yes,https://serpapi.com/home-depot-stores-us.json,https://simplemaps.com/data/business/home-depot
253,253,Ocala,"3300 Sw 35th Terrace, Ocala FL 34474","3300 Sw 35th Terrace, Ocala FL",Ocala,FL,34474,29.155,-82.183,yes,https://serpapi.com/home-depot-stores-us.json,https://simplemaps.com/data/business/home-depot
254,254,Tallahassee,"3200 Capital Cir Ne, Tallahassee FL 32308","3200 Capital Cir Ne, Tallahassee FL",Tallahassee,FL,32308,30.494,-84.247,yes,https://serpapi.com/home-depot-stores-us.json,https://simplemaps.com/data/business/home-depot
255,255,Sarasota,"4111 Cattleman Rd, Sarasota FL 34233","4111 Cattleman Rd, Sarasota FL",Sarasota,FL,34233,27.294,-82.45,yes,https://serpapi.com/home-depot-stores-us.json,https://simplemaps.com/data/business/home-depot
256,256,Stadium,"1712 N Dale Mabry Hwy, Stadium FL 33607","1712 N Dale Mabry Hwy, Stadium FL",Tampa,FL,33607,27.959,-82.508,yes,https://serpapi.com/home-depot-stores-us.json,https://simplemaps.com/data/business/home-depot
257,257,St Pete,"2300 22nd Ave N, St Pete FL 33713","2300 22nd Ave N, St Pete FL",St Petersburg,FL,33713,27.79,-82.665,yes,https://serpapi.com/home-depot-stores-us.json,https://simplemaps.com/data/business/home-depot
258,258,Sunrise,"2901 N University Dr, Sunrise FL 33322","2901 N University Dr, Sunrise FL",Sunrise,FL,33322,26.16,-80.259,yes,https://serpapi.com/home-depot-stores-us.json,https://simplemaps.com/data/business/home-depot
260,260,Melbourne,"2829 W New Haven Ave, Melbourne FL 32904","2829 W New Haven Ave, Melbourne FL",West Melbourne,FL,32904,28.077,-80.668,yes,https://serpapi.com/home-depot-stores-us.json,https://simplemaps.com/data/business/home-depot
261,261,West Colonial,"7022 W Colonial Dr, W Colonial FL 32818","7022 W Colonial Dr, W Colonial FL",Orlando,FL,32818,28.55,-81.477,yes,https://serpapi.com/home-depot-stores-us.json,https://simplemaps.com/data/business/home-depot
262,262,Casselberry,"3455 S Us Hwy 17-92, Casselberry FL 32707","3455 S Us Hwy 17-92, Casselberry FL",Casselberry,FL,32707,28.677,-81.334,yes,https://serpapi.com/home-depot-stores-us.json,https://simplemaps.com/data/business/home-depot
263,263,Forest City,"882 W State Rd 436, Forest City FL 32714","882 W State Rd 436, Forest City FL",Altamonte Springs,FL,32714,28.663,-81.416,yes,https://serpapi.com/home-depot-stores-us.json,https://simplemaps.com/data/business/home-depot
264,264,Lake Mary,"4600 W Lake Mary Blvd, Lake Mary FL 32746","4600 W Lake Mary Blvd, Lake Mary FL",Lake Mary,FL,32746,28.758,-81.357,yes,https://serpapi.com/home-depot-stores-us.json,https://simplemaps.com/data/business/home-depot
265,265,Kissimmee,"2601 W Vine St, Kissimmee FL 34741","2601 W Vine St, Kissimmee FL",Kissimmee,FL,34741,28.307,-81.43,yes,https://serpapi.com/home-depot-stores-us.json,https://simplemaps.com/data/business/home-depot
266,266,East Colonial,"6130 E Colonial Dr, E Colonial FL 32807","6130 E Colonial Dr, E Colonial FL",Orlando,FL,32807,28.558,-81.306,yes,https://serpapi.com/home-depot-stores-us.json,https://simplemaps.com/data/business/home-depot
268,268,Cape Coral,"3031 Ne Pine Island Rd, Cape Coral FL 33909","3031 Ne Pine Island Rd, Cape Coral FL",Cape Coral,FL,33909,26.684,-81.907,yes,https://serpapi.com/home-depot-stores-us.json,https://simplemaps.com/data/business/home-depot
270,270,Gainesville,"7107 Nw 4th Blvd, Gainesville FL 32607","7107 Nw 4th Blvd, Gainesville FL",Gainesville,FL,32607,29.655,-82.418,yes,https://serpapi.com/home-depot-stores-us.json,https://simplemaps.com/data/business/home-depot
272,272,Regency Square,"9520 Regency Square Blvd N, Regency Sq FL 32225","9520 Regency Square Blvd N, Regency Sq FL",Jacksonville,FL,32225,30.328,-81.551,yes,https://serpapi.com/home-depot-stores-us.json,https://simplemaps.com/data/business/home-depot
273,273,Venice,"2450 Jacaranda Blvd, Venice FL 34293","2450 Jacaranda Blvd, Venice FL",Venice,FL,34293,27.053,-82.394,yes,https://serpapi.com/home-depot-stores-us.json,https://simplemaps.com/data/business/home-depot
274,274,Jupiter,"1694 W Indiantown Rd, Jupiter FL 33458","1694 W Indiantown Rd, Jupiter FL",Jupiter,FL,33458,26.932,-80.124,yes,https://serpapi.com/home-depot-stores-us.json,https://simplemaps.com/data/business/home-depot
275,275,Orange Park,"1919 Wells Rd, Orange Park FL 32073","1919 Wells Rd, Orange Park FL",Orange Park,FL,32073,30.189,-81.737,yes,https://serpapi.com/home-depot-stores-us.json,https://simplemaps.com/data/business/home-depot
276,276,Fort Myers,"14655 S Tamiami Trail, Ft Myers FL 33912","14655 S Tamiami Trail, Ft Myers FL",Fort Myers,FL,33912,26.529,-81.868,yes,https://serpapi.com/home-depot-stores-us.json,https://simplemaps.com/data/business/home-depot
277,277,Miami (Calle Ocho),"3030 Sw 8th St, Miami (calle Ocho) FL 33135","3030 Sw 8th St, Miami (calle Ocho) FL",Miami,FL,33135,25.764,-80.244,yes,https://serpapi.com/home-depot-stores-us.json,https://simplemaps.com/data/business/home-depot
278,278,Leesburg,"10825 Us Hwy 441, Leesburg, FL FL 34788","10825 Us Hwy 441, Leesburg, FL FL",Leesburg,FL,34788,28.822,-81.777,yes,https://serpapi.com/home-depot-stores-us.json,https://simplemaps.com/data/business/home-depot
279,279,Northgate,"8815 N Florida Ave, Northgate FL 33604","8815 N Florida Ave, Northgate FL",Tampa,FL,33604,28.029,-82.46,yes,https://serpapi.com/home-depot-stores-us.json,https://simplemaps.com/data/business/home-depot
280,280,Naples,"2251 Pine Ridge Rd, Naples FL 34109","2251 Pine Ridge Rd, Naples FL",Naples,FL,34109,26.213,-81.773,yes,https://serpapi.com/home-depot-stores-us.json,https://simplemaps.com/data/business/home-depot
281,281,Spring Hill,"4765 Commercial Way, Spring Hill FL 34606","4765 Commercial Way, Spring Hill FL",Spring Hill,FL,34606,28.5,-82.594,yes,https://serpapi.com/home-depot-stores-us.json,https://simplemaps.com/data/business/home-depot
283,283,Ft Pierce,"5880 Okeechobee Rd, Ft Pierce FL 34947","5880 Okeechobee Rd, Ft Pierce FL",Fort Pierce,FL,34947,27.418,-80.386,yes,https://serpapi.com/home-depot-stores-us.json,https://simplemaps.com/data/business/home-depot
284,284,Coral Springs,"750 N University Dr, Coral Springs FL 33071","750 N University Dr, Coral Springs FL",Coral Springs,FL,33071,26.242,-80.257,yes,https://serpapi.com/home-depot-stores-us.json,https://simplemaps.com/data/business/home-depot
285,285,Hollywood,"1951 S State Rd #7, Hollywood FL 33023","1951 S State Rd #7, Hollywood FL",West Park,FL,33023,25.994,-80.204,yes,https://serpapi.com/home-depot-stores-us.json,https://simplemaps.com/data/business/home-depot
287,287,Oviedo,"1900 W State Rd 426, Oviedo FL 32765","1900 W State Rd 426, Oviedo FL",Oviedo,FL,32765,28.654,-81.23,yes,https://serpapi.com/home-depot-stores-us.json,https://simplemaps.com/data/business/home-depot
288,288,Holiday,"1315 Us Hwy 19, Holiday FL 34691","1315 Us Hwy 19, Holiday FL",Holiday,FL,34691,28.178,-82.742,yes,https://serpapi.com/home-depot-stores-us.json,https://simplemaps.com/data/business/home-depot
289,289,Pinellas Park,"4040 Park Blvd, Pinellas Park FL 33781","4040 Park Blvd, Pinellas Park FL",Pinellas Park,FL,33781,27.838,-82.689,yes,https://serpapi.com/home-depot-stores-us.json,https://simplemaps.com/data/business/home-depot
347,347,Hammond,"400 W Minnesota Park Road, Hammond,LA LA 70403","400 W Minnesota Park Road, Hammond,LA LA",Hammond,LA,70403,30.486,-90.46,yes,https://serpapi.com/home-depot-stores-us.json,https://simplemaps.com/data/business/home-depot
349,349,Kenner,"2625 Veterans Blvd, Kenner LA 70062","2625 Veterans Blvd, Kenner LA",Kenner,LA,70062,30.003,-90.232,yes,https://serpapi.com/home-depot-stores-us.json,https://simplemaps.com/data/business/home-depot
352,352,I-10 Bullard,"12300 I-10 Service Rd, I-10 BullardLA 70128","12300 I-10 Service Rd, I-10 BullardLA",New Orleans,LA,70128,30.047,-89.956,yes,https://serpapi.com/home-depot-stores-us.json,https://simplemaps.com/data/business/home-depot
356,356,Shreveport,"110 E Bert Kouns Industrial Loop, Shreveport LA 71106","110 E Bert Kouns Industrial Loop, Shreveport LA",Shreveport,LA,71106,32.4,-93.749,yes,https://serpapi.com/home-depot-stores-us.json,https://simplemaps.com/data/business/home-depot
357,357,Baton Rouge,"10300 Coursey Blvd, Baton Rouge LA 70816","10300 Coursey Blvd, Baton Rouge LA",Baton Rouge,LA,70816,30.416,-91.066,yes,https://serpapi.com/home-depot-stores-us.json,https://simplemaps.com/data/business/home-depot
358,358,Covington,"40 Park Place Drive, Covington LA 70433","40 Park Place Drive, Covington LA",Covington,LA,70433,30.442,-90.079,yes,https://serpapi.com/home-depot-stores-us.json,https://simplemaps.com/data/business/home-depot
359,359,Gretna,"62 Westbank Expy, Gretna LA 70053","62 Westbank Expy, Gretna LA",Gretna,LA,70053,29.912,-90.047,yes,https://serpapi.com/home-depot-stores-us.json,https://simplemaps.com/data/business/home-depot
360,360,Lafayette,"3721 Ambassador Caffery Blvd, Lafayette LA 70503","3721 Ambassador Caffery Blvd, Lafayette LA",Lafayette,LA,70503,30.174,-92.067,yes,https://serpapi.com/home-depot-stores-us.json,https://simplemaps.com/data/business/home-depot
362,362,Harahan,"5151 Citrus Blvd, Harahan LA 70123","5151 Citrus Blvd, Harahan LA",New Orleans,LA,70123,29.967,-90.187,yes,https://serpapi.com/home-depot-stores-us.json,https://simplemaps.com/data/business/home-depot
363,363,Lake Charles,"3200 E Prien Lake Rd, Lake Charles LA 70615","3200 E Prien Lake Rd, Lake Charles LA",Lake Charles,LA,70615,30.197,-93.171,yes,https://serpapi.com/home-depot-stores-us.json,https://simplemaps.com/data/business/home-depot
364,364,Bossier City,"2800 Airline Dr, Bossier City LA 71111","2800 Airline Dr, Bossier City LA",Bossier City,LA,71111,32.554,-93.708,yes,https://serpapi.com/home-depot-stores-us.json,https://simplemaps.com/data/business/home-depot
365,365,Slidell,"143 Northshore Blvd, Slidell LA 70460","143 Northshore Blvd, Slidell LA",Slidell,LA,70460,30.306,-89.828,yes,https://serpapi.com/home-depot-stores-us.json,https://simplemaps.com/data/business/home-depot
366,366,Monroe,"3750 Millhaven Rd, Monroe LA 71203","3750 Millhaven Rd, Monroe LA",Monroe,LA,71203,32.501,-92.073,yes,https://serpapi.com/home-depot-stores-us.json,https://simplemaps.com/data/business/home-depot
367,367,North Baton Rouge,"8181 Airline Hwy, N Baton Rouge LA 70815","8181 Airline Hwy, N Baton Rouge LA",Baton Rouge,LA,70815,30.464,-91.101,yes,https://serpapi.com/home-depot-stores-us.json,https://simplemaps.com/data/business/home-depot
368,368,Marrero,"4600 Lapalco, Marrero LA 70072","4600 Lapalco, Marrero LA",Marrero,LA,70072,29.876,-90.09,yes,https://serpapi.com/home-depot-stores-us.json,https://simplemaps.com/data/business/home-depot
370,370,Southeast Baton Rouge,"18139 Highland Rd, Se Baton Rouge LA 70810","18139 Highland Rd, Se Baton Rouge LA",Baton Rouge,LA,70810,30.351,-91.028,yes,https://serpapi.com/home-depot-stores-us.json,https://simplemaps.com/data/business/home-depot
371,371,Houma,"1717 Martin Luther King Blvd, Houma LA 70360","1717 Martin Luther King Blvd, Houma LA",Houma,LA,70360,29.61,-90.756,yes,https://serpapi.com/home-depot-stores-us.json,https://simplemaps.com/data/business/home-depot
373,373,Chalmette,"8601 W Judge Perez Dr, Chalmette LA 70043","8601 W Judge Perez Dr, Chalmette LA",Chalmette,LA,70043,29.952,-89.975,yes,https://serpapi.com/home-depot-stores-us.json,https://simplemaps.com/data/business/home-depot
374,374,Alexandria,"5000 Masonic Dr, Alexandria,LA LA 71301","5000 Masonic Dr, Alexandria,LA LA",Alexandria,LA,71301,31.27,-92.472,yes,https://serpapi.com/home-depot-stores-us.json,https://simplemaps.com/data/business/home-depot
375,375,Denham Springs,"2255 Home Depot Dr, Denham Springs LA 70726","2255 Home Depot Dr, Denham Springs LA",Denham Springs,LA,70726,30.46,-90.959,yes,https://serpapi.com/home-depot-stores-us.json,https://simplemaps.com/data/business/home-depot
376,376,North Lafayette,"1700 Ne Evangeline Trwy Thruway, N Lafayette LA 70501","1700 Ne Evangeline Trwy Thruway, N Lafayette LA",Lafayette,LA,70501,30.246,-92.011,yes,https://serpapi.com/home-depot-stores-us.json,https://simplemaps.com/data/business/home-depot
378,378,La Place,"300 W Airline Hwy, La Place LA 70068","300 W Airline Hwy, La Place LA",Laplace,LA,70068,30.069,-90.483,yes,https://serpapi.com/home-depot-stores-us.json,https://simplemaps.com/data/business/home-depot
380,380,Zachary,"6600 Main Street, Zachary LA 70791","6600 Main Street, Zachary LA",Zachary,LA,70791,30.648,-91.134,yes,https://serpapi.com/home-depot-stores-us.json,https://simplemaps.com/data/business/home-depot
381,381,West Shreveport,"6900 Pines Road, W Shrevport LA 71129","6900 Pines Road, W Shrevport LA",Shreveport,LA,71129,32.444,-93.865,yes,https://serpapi.com/home-depot-stores-us.json,https://simplemaps.com/data/business/home-depot
383,383,Gonzales,"2740 South Cajun Avenue, Gonzales LA 70737","2740 South Cajun Avenue, Gonzales LA",Gonzales,LA,70737,30.207,-90.941,yes,https://serpapi.com/home-depot-stores-us.json,https://simplemaps.com/data/business/home-depot
385,385,New Orleans Central,"1100 South Claiborne Ave, New Orleans Central LA 70125","1100 South Claiborne Ave, New Orleans Central LA",New Orleans,LA,70125,29.948,-90.086,yes,https://serpapi.com/home-depot-stores-us.json,https://simplemaps.com/data/business/home-depot
386,386,Slidell East,"874 I-10 Service Rd, Slidell East LA 70461","874 I-10 Service Rd, Slidell East LA",Slidell,LA,70461,30.288,-89.747,yes,https://serpapi.com/home-depot-stores-us.json,https://simplemaps.com/data/business/home-depot
389,389,Broussard,"213 Saint Nazaire Road, Broussard LA 70518","213 Saint Nazaire Road, Broussard LA",Broussard,LA,70518,30.143,-91.941,yes,https://serpapi.com/home-depot-stores-us.json,https://simplemaps.com/data/business/home-depot
401,401,N Phoenix,"2217 East Bell Road, N Phoenix AZ 85022","2217 East Bell Road, N Phoenix AZ",Phoenix,AZ,85022,33.639,-112.034,yes,https://serpapi.com/home-depot-stores-us.json,https://simplemaps.com/data/business/home-depot
402,402,Yuma,"1111 S Redondo Center Dr, Yuma AZ 85365","1111 S Redondo Center Dr, Yuma AZ",Yuma,AZ,85365,32.708,-114.612,yes,https://serpapi.com/home-depot-stores-us.json,https://simplemaps.com/data/business/home-depot
403,403,Lake Havasu City,"100 Retail Centre Blvd, Lake Havasu City AZ 86404","100 Retail Centre Blvd, Lake Havasu City AZ",Lake Havasu City,AZ,86404,34.562,-114.363,yes,https://serpapi.com/home-depot-stores-us.json,https://simplemaps.com/data/business/home-depot
404,404,Apache Junction,"1545 S Crismon Rd, Apache Junction AZ 85209","1545 S Crismon Rd, Apache Junction AZ",Mesa,AZ,85209,33.389,-111.613,yes,https://serpapi.com/home-depot-stores-us.json,https://simplemaps.com/data/business/home-depot
405,405,Glendale III,"5902 W Peoria Ave, Glendale III AZ 85302","5902 W Peoria Ave, Glendale III AZ",Glendale,AZ,85302,33.583,-112.188,yes,https://serpapi.com/home-depot-stores-us.json,https://simplemaps.com/data/business/home-depot
406,406,NE Mesa,"6708 E Mckellips Rd, Ne Mesa AZ 85215","6708 E Mckellips Rd, Ne Mesa AZ",Mesa,AZ,85215,33.453,-111.686,yes,https://serpapi.com/home-depot-stores-us.json,https://simplemaps.com/data/business/home-depot
408,408,Casa Grande,"1546 E Florence Blvd, Casa Grande AZ 85122","1546 E Florence Blvd, Casa Grande AZ",Casa Grande,AZ,85122,32.881,-111.721,yes,https://serpapi.com/home-depot-stores-us.json,https://simplemaps.com/data/business/home-depot
410,410,Tucson,"7677 E Broadway Blvd, Tucson AZ 85710","7677 E Broadway Blvd, Tucson AZ",Tucson,AZ,85710,32.223,-110.828,yes,https://serpapi.com/home-depot-stores-us.json,https://simplemaps.com/data/business/home-depot
411,411,Show Low,"5601 S White Mountain Rd, Show Low AZ 85901","5601 S White Mountain Rd, Show Low AZ",Show Low,AZ,85901,34.199,-110.016,yes,https://serpapi.com/home-depot-stores-us.json,https://simplemaps.com/data/business/home-depot
413,413,SW Phoenix,"9969 W Camelback Road, Sw Phoenix AZ 85037","9969 W Camelback Road, Sw Phoenix AZ",Phoenix,AZ,85037,33.507,-112.274,yes,https://serpapi.com/home-depot-stores-us.json,https://simplemaps.com/data/business/home-depot
414,414,Tucson / Oracle,"4302 North Oracle Road, Tucson / Oracle AZ 85705","4302 North Oracle Road, Tucson / Oracle AZ",Tucson,AZ,85705,32.284,-110.978,yes,https://serpapi.com/home-depot-stores-us.json,https://simplemaps.com/data/business/home-depot
415,415,Queen Creek,"7401 S Power Road, Queen Creek AZ 85142","7401 S Power Road, Queen Creek AZ",Queen Creek,AZ,85142,33.281,-111.683,yes,https://serpapi.com/home-depot-stores-us.json,https://simplemaps.com/data/business/home-depot
416,416,Kingman,"3860 Stockton Hill Rd, Kingman AZ 86409","3860 Stockton Hill Rd, Kingman AZ",Kingman,AZ,86409,35.235,-114.035,yes,https://serpapi.com/home-depot-stores-us.json,https://simplemaps.com/data/business/home-depot
417,417,Ocotillo/S Chandler,"4141 S Arizona Avenue, Ocotillo/S Chandler AZ 85248","4141 S Arizona Avenue, Ocotillo/S Chandler AZ",Chandler,AZ,85248,33.245,-111.839,yes,https://serpapi.com/home-depot-stores-us.json,https://simplemaps.com/data/business/home-depot
419,419,San Tan Valley,"1400 W. Hunt Hwy, San Tan Valley AZ 85143","1400 W. Hunt Hwy, San Tan Valley AZ",San Tan Valley,AZ,85143,33.178,-111.58,yes,https://serpapi.com/home-depot-stores-us.json,https://simplemaps.com/data/business/home-depot
420,420,Scottsdale-Shea,"9890 N 90th St, Scottsdale-Shea AZ 85258","9890 N 90th St, Scottsdale-Shea AZ",Scottsdale,AZ,85258,33.577,-111.888,yes,https://serpapi.com/home-depot-stores-us.json,https://simplemaps.com/data/business/home-depot
421,421,Flagstaff East,"5005 E Marketplace Dr Ste 110, Flagstaff East AZ 86004","5005 E Marketplace Dr Ste 110, Flagstaff East AZ",Flagstaff,AZ,86004,35.222,-111.572,yes,https://serpapi.com/home-depot-stores-us.json,https://simplemaps.com/data/business/home-depot
422,422,Payson,"2000 North Beeline Hwy, Payson AZ 85541","2000 North Beeline Hwy, Payson AZ",Payson,AZ,85541,34.267,-111.324,yes,https://serpapi.com/home-depot-stores-us.json,https://simplemaps.com/data/business/home-depot
423,423,Cottonwood,"1030 South State Route 260, Cottonwood AZ 86326","1030 South State Route 260, Cottonwood AZ",Cottonwood,AZ,86326,34.721,-112.003,yes,https://serpapi.com/home-depot-stores-us.json,https://simplemaps.com/data/business/home-depot
424,424,Peoria/Happy Valley,"25650 North Lake Pleasant Pkwy, Peoria/Happy Valley AZ 85383","25650 North Lake Pleasant Pkwy, Peoria/Happy Valley AZ",Peoria,AZ,85383,33.717,-112.273,yes,https://serpapi.com/home-depot-stores-us.json,https://simplemaps.com/data/business/home-depot
428,428,El Paso (Eastlake),,,El Paso,TX,0,31.689,-106.26,no,,https://simplemaps.com/data/business/home-depot
429,429,Homestead,,,Homestead,FL,0,25.501,-80.415,no,,https://simplemaps.com/data/business/home-depot
430,430,Viera,,,Rockledge,FL,0,28.265,-80.724,no,,https://simplemaps.com/data/business/home-depot
431,431,Prasada South,,,Surprise,AZ,0,33.594,-112.416,no,,https://simplemaps.com/data/business/home-depot
432,432,Maricopa (Stonegate),,,Maricopa,AZ,0,33.042,-112.021,no,,https://simplemaps.com/data/business/home-depot
441,441,Avondale,"1489 N Dysart Rd, Avondale AZ 85323","1489 N Dysart Rd, Avondale AZ",Avondale,AZ,85323,33.456,-112.339,yes,https://serpapi.com/home-depot-stores-us.json,https://simplemaps.com/data/business/home-depot
442,442,Bullhead City,"660 Us Hwy 95, Bullhead City AZ 86429","660 Us Hwy 95, Bullhead City AZ",Bullhead City,AZ,86429,35.164,-114.565,yes,https://serpapi.com/home-depot-stores-us.json,https://simplemaps.com/data/business/home-depot
443,443,Sierra Vista,"3500 Avenida Cochise, Sierra Vista AZ 85635","3500 Avenida Cochise, Sierra Vista AZ",Sierra Vista,AZ,85635,31.53,-110.262,yes,https://serpapi.com/home-depot-stores-us.json,https://simplemaps.com/data/business/home-depot
445,445,Thatcher,"750 S 20th Avenue, Thatcher AZ 85552","750 S 20th Avenue, Thatcher AZ",Thatcher,AZ,85552,32.833,-109.734,yes,https://serpapi.com/home-depot-stores-us.json,https://simplemaps.com/data/business/home-depot
446,446,Prescott Valley,"5500 E State Route 69, Prescott Valley AZ 86314","5500 E State Route 69, Prescott Valley AZ",Prescott Valley,AZ,86314,34.575,-112.369,yes,https://serpapi.com/home-depot-stores-us.json,https://simplemaps.com/data/business/home-depot
447,447,Phoenix (51st/baseline),"5230 W Baseline Road, Phoenix (51st/Baseline)AZ 85339","5230 W Baseline Road, Phoenix (51st/Baseline)AZ",Laveen,AZ,85339,33.379,-112.172,yes,https://serpapi.com/home-depot-stores-us.json,https://simplemaps.com/data/business/home-depot
452,452,Prescott,"1941 E, Az-69, Prescott AZ 86301","1941 E, Az-69, Prescott AZ",Prescott,AZ,86301,34.55,-112.429,yes,https://serpapi.com/home-depot-stores-us.json,https://simplemaps.com/data/business/home-depot
453,453,Peoria,"9201 W Peoria Ave, Peoria AZ 85345","9201 W Peoria Ave, Peoria AZ",Peoria,AZ,85345,33.579,-112.257,yes,https://serpapi.com/home-depot-stores-us.json,https://simplemaps.com/data/business/home-depot
455,455,Mcdowell,"7333 W Mcdowell Rd, Mcdowell AZ 85035","7333 W Mcdowell Rd, Mcdowell AZ",Phoenix,AZ,85035,33.465,-112.219,yes,https://serpapi.com/home-depot-stores-us.json,https://simplemaps.com/data/business/home-depot
456,456,Superstition,"6838 E Superstition Springs Blvd, Superstition AZ 85209","6838 E Superstition Springs Blvd, Superstition AZ",Mesa,AZ,85209,33.385,-111.683,yes,https://serpapi.com/home-depot-stores-us.json,https://simplemaps.com/data/business/home-depot
457,457,Scottsdale,"9170 E Talking Stick Way, Scottsdale AZ 85250","9170 E Talking Stick Way, Scottsdale AZ",Scottsdale,AZ,85250,33.541,-111.884,yes,https://serpapi.com/home-depot-stores-us.json,https://simplemaps.com/data/business/home-depot
458,458,Tempe,"725 W Warner Rd, Tempe AZ 85284","725 W Warner Rd, Tempe AZ",Tempe,AZ,85284,33.334,-111.948,yes,https://serpapi.com/home-depot-stores-us.json,https://simplemaps.com/data/business/home-depot
459,459,West Bell Rd,"6880 W Bell Rd, W Bell Rd AZ 85308","6880 W Bell Rd, W Bell Rd AZ",Glendale,AZ,85308,33.639,-112.207,yes,https://serpapi.com/home-depot-stores-us.json,https://simplemaps.com/data/business/home-depot
464,464,Tatum & Bell,"16803 N Tatum Blvd, Tatum & Bell AZ 85032","16803 N Tatum Blvd, Tatum & Bell AZ",Phoenix,AZ,85032,33.639,-111.976,yes,https://serpapi.com/home-depot-stores-us.json,https://simplemaps.com/data/business/home-depot
467,467,Irvington,"1155 W Irvington Rd, Irvington AZ 85714","1155 W Irvington Rd, Irvington AZ",Tucson,AZ,85714,32.161,-110.987,yes,https://serpapi.com/home-depot-stores-us.json,https://simplemaps.com/data/business/home-depot
468,468,Thunderbird,"2650 W Thunderbird Rd, Thunderbird AZ 85023","2650 W Thunderbird Rd, Thunderbird AZ",Phoenix,AZ,85023,33.612,-112.115,yes,https://serpapi.com/home-depot-stores-us.json,https://simplemaps.com/data/business/home-depot
469,469,Mesa,"1740 S Country Club Dr, Mesa AZ 85210","1740 S Country Club Dr, Mesa AZ",Mesa,AZ,85210,33.383,-111.842,yes,https://serpapi.com/home-depot-stores-us.json,https://simplemaps.com/data/business/home-depot
470,470,Chandler,"1155 W Chandler Blvd, Chandler AZ 85224","1155 W Chandler Blvd, Chandler AZ",Chandler,AZ,85224,33.304,-111.862,yes,https://serpapi.com/home-depot-stores-us.json,https://simplemaps.com/data/business/home-depot
471,471,Gilbert,"745 S Val Vista Dr, Gilbert AZ 85296","745 S Val Vista Dr, Gilbert AZ",Gilbert,AZ,85296,33.337,-111.754,yes,https://serpapi.com/home-depot-stores-us.json,https://simplemaps.com/data/business/home-depot
472,472,North Scottsdale,"15499 N Hayden Rd, N Scottsdale AZ 85260","15499 N Hayden Rd, N Scottsdale AZ",Scottsdale,AZ,85260,33.625,-111.897,yes,https://serpapi.com/home-depot-stores-us.json,https://simplemaps.com/data/business/home-depot
473,473,North Mesa,"425 S Val Vista Dr, North Mesa AZ 85204","425 S Val Vista Dr, North Mesa AZ",Mesa,AZ,85204,33.407,-111.754,yes,https://serpapi.com/home-depot-stores-us.json,https://simplemaps.com/data/business/home-depot
474,474,Rita Ranch,,,Tucson,AZ,0,32.089,-110.776,no,,https://simplemaps.com/data/business/home-depot
475,475,Arrowhead Ranch,"6160 W Behrend Dr, Arrowhead Ranch AZ 85308","6160 W Behrend Dr, Arrowhead Ranch AZ",Glendale,AZ,85308,33.667,-112.191,yes,https://serpapi.com/home-depot-stores-us.json,https://simplemaps.com/data/business/home-depot
476,476,Ray Road,"650 N 54th St, Suite A, Ray Road AZ 85226","650 N 54th St, Suite A, Ray Road AZ",Chandler,AZ,85226,33.314,-111.971,yes,https://serpapi.com/home-depot-stores-us.json,https://simplemaps.com/data/business/home-depot
477,477,Thomas Rd,"3609 E Thomas Rd, Thomas Rd AZ 85018","3609 E Thomas Rd, Thomas Rd AZ",Phoenix,AZ,85018,33.479,-112.004,yes,https://serpapi.com/home-depot-stores-us.json,https://simplemaps.com/data/business/home-depot
478,478,Marana (NW Tucson),"3925 W Costco Dr, Marana (nw Tucson) AZ 85741","3925 W Costco Dr, Marana (nw Tucson) AZ",Tucson,AZ,85741,32.328,-111.05,yes,https://serpapi.com/home-depot-stores-us.json,https://simplemaps.com/data/business/home-depot
480,480,Cave Creek,"12434 N Cave Creek Rd, Cave Creek AZ 85022","12434 N Cave Creek Rd, Cave Creek AZ",Phoenix,AZ,85022,33.599,-112.039,yes,https://serpapi.com/home-depot-stores-us.json,https://simplemaps.com/data/business/home-depot
481,481,North Tucson (Oro Valley),"10855 N Oracle Rd, N Tucson (oro Valley) AZ 85737","10855 N Oracle Rd, N Tucson (oro Valley) AZ",Oro Valley,AZ,85737,32.403,-110.954,yes,https://serpapi.com/home-depot-stores-us.json,https://simplemaps.com/data/business/home-depot
482,482,Flagstaff,"1325 N Rte 66, Flagstaff AZ 86001","1325 N Rte 66, Flagstaff AZ",Flagstaff,AZ,86001,35.188,-111.67,yes,https://serpapi.com/home-depot-stores-us.json,https://simplemaps.com/data/business/home-depot
483,483,Surprise,"13760 W Bell Rd, Surprise AZ 85374","13760 W Bell Rd, Surprise AZ",Surprise,AZ,85374,33.64,-112.357,yes,https://serpapi.com/home-depot-stores-us.json,https://simplemaps.com/data/business/home-depot
485,485,Camelback,"4848 N 43rd Ave, Camelback AZ 85031","4848 N 43rd Ave, Camelback AZ",Phoenix,AZ,85031,33.508,-112.153,yes,https://serpapi.com/home-depot-stores-us.json,https://simplemaps.com/data/business/home-depot
486,486,Central Tucson (El Con),"3689 E Broadway Blvd, Central Tucson (el Con) AZ 85716","3689 E Broadway Blvd, Central Tucson (el Con) AZ",Tucson,AZ,85716,32.225,-110.915,yes,https://serpapi.com/home-depot-stores-us.json,https://simplemaps.com/data/business/home-depot
488,488,Carefree,"4925 E Carefree Hwy, Carefree AZ 85331","4925 E Carefree Hwy, Carefree AZ",Cave Creek,AZ,85331,33.797,-111.975,yes,https://serpapi.com/home-depot-stores-us.json,https://simplemaps.com/data/business/home-depot
489,489,Tempe (K),"1330 West Baseline Road, Tempe(K) AZ 85283","1330 West Baseline Road, Tempe(K) AZ",Tempe,AZ,85283,33.38,-111.96,yes,https://serpapi.com/home-depot-stores-us.json,https://simplemaps.com/data/business/home-depot
501,501,Beaumont,"3910 Eastex Freeway, Beaumont TX 77703","3910 Eastex Freeway, Beaumont TX",Beaumont,TX,77703,30.116,-94.141,yes,https://serpapi.com/home-depot-stores-us.json,https://simplemaps.com/data/business/home-depot
503,503,Fair Ave,"527 Fair Ave, Fair Ave TX 78223","527 Fair Ave, Fair Ave TX",San Antonio,TX,78223,29.386,-98.468,yes,https://serpapi.com/home-depot-stores-us.json,https://simplemaps.com/data/business/home-depot
504,504,Round Rock,"2551 S Interstate 35, Round Rock TX 78664","2551 S Interstate 35, Round Rock TX",Round Rock,TX,78664,30.485,-97.673,yes,https://serpapi.com/home-depot-stores-us.json,https://simplemaps.com/data/business/home-depot
505,505,Lubbock,"5801 West Loop 289, Lubbock TX 79414","5801 West Loop 289, Lubbock TX",Lubbock,TX,79414,33.541,-101.931,yes,https://serpapi.com/home-depot-stores-us.json,https://simplemaps.com/data/business/home-depot
506,506,Mcallen,,,Pharr,TX,0,26.202,-98.207,no,,https://simplemaps.com/data/business/home-depot
507,507,Grand Prairie,"3850 S Carrier Pkwy, Grand Prairie TX 75052","3850 S Carrier Pkwy, Grand Prairie TX",Grand Prairie,TX,75052,32.679,-97.009,yes,https://serpapi.com/home-depot-stores-us.json,https://simplemaps.com/data/business/home-depot
508,508,Conroe,"1341 W Davis St, Conroe TX 77304","1341 W Davis St, Conroe TX",Conroe,TX,77304,30.315,-95.476,yes,https://serpapi.com/home-depot-stores-us.json,https://simplemaps.com/data/business/home-depot
509,509,Lakeline,"11301 Lakeline Blvd, Lakeline TX 78717","11301 Lakeline Blvd, Lakeline TX",Austin,TX,78717,30.479,-97.799,yes,https://serpapi.com/home-depot-stores-us.json,https://simplemaps.com/data/business/home-depot
513,513,Lufkin,"4211 S Medford Dr, Lufkin TX 75901","4211 S Medford Dr, Lufkin TX",Lufkin,TX,75901,31.311,-94.72,yes,https://serpapi.com/home-depot-stores-us.json,https://simplemaps.com/data/business/home-depot
514,514,Marble Falls,"1307 Mormon Mills Rd, Marble Falls TX 78654","1307 Mormon Mills Rd, Marble Falls TX",Marble Falls,TX,78654,30.581,-98.27,yes,https://serpapi.com/home-depot-stores-us.json,https://simplemaps.com/data/business/home-depot
516,516,N Mcallen,"801 Trenton Rd, N Mcallen TX 78504","801 Trenton Rd, N Mcallen TX",Mcallen,TX,78504,26.267,-98.216,yes,https://serpapi.com/home-depot-stores-us.json,https://simplemaps.com/data/business/home-depot
518,518,Sherman,"601 Northcreek Dr, Sherman TX 75092","601 Northcreek Dr, Sherman TX",Sherman,TX,75092,33.682,-96.612,yes,https://serpapi.com/home-depot-stores-us.json,https://simplemaps.com/data/business/home-depot
519,519,Gainesville,,,Gainesville,TX,0,33.639,-97.138,no,,https://simplemaps.com/data/business/home-depot
522,522,El Paso,,,El Paso,TX,0,31.74,-106.32,no,,https://simplemaps.com/data/business/home-depot
523,523,West El Paso,"7545 N Mesa St, W El Paso TX 79912","7545 N Mesa St, W El Paso TX",El Paso,TX,79912,31.836,-106.564,yes,https://serpapi.com/home-depot-stores-us.json,https://simplemaps.com/data/business/home-depot
524,524,Lewisville,"901 N Stemmons Pkwy, Lewisville TX 75067","901 N Stemmons Pkwy, Lewisville TX",Lewisville,TX,75067,33.054,-97.013,yes,https://serpapi.com/home-depot-stores-us.json,https://simplemaps.com/data/business/home-depot
526,526,Corpus Christi,,,Corpus Christi,TX,0,27.711,-97.38,no,,https://simplemaps.com/data/business/home-depot
527,527,North Plano,"4600 State Hwy 121, N Plano TX 75024","4600 State Hwy 121, N Plano TX",Plano,TX,75024,33.099,-96.795,yes,https://serpapi.com/home-depot-stores-us.json,https://simplemaps.com/data/business/home-depot
528,528,Mckinney,"1515 N Central Expy, Mckinney TX 75070","1515 N Central Expy, Mckinney TX",Mckinney,TX,75070,33.212,-96.639,yes,https://serpapi.com/home-depot-stores-us.json,https://simplemaps.com/data/business/home-depot
529,529,South Fort Worth,"7950 South Fwy, S Fort Worth TX 76134","7950 South Fwy, S Fort Worth TX",Fort Worth,TX,76134,32.633,-97.324,yes,https://serpapi.com/home-depot-stores-us.json,https://simplemaps.com/data/business/home-depot
530,530,Cedar Hill,"373 E Fm 1382, Cedar Hill TX 75104","373 E Fm 1382, Cedar Hill TX",Cedar Hill,TX,75104,32.594,-96.936,yes,https://serpapi.com/home-depot-stores-us.json,https://simplemaps.com/data/business/home-depot
531,531,Rockwall,"765 E I-30, Rockwall TX 75087","765 E I-30, Rockwall TX",Rockwall,TX,75087,32.898,-96.461,yes,https://serpapi.com/home-depot-stores-us.json,https://simplemaps.com/data/business/home-depot
534,534,Katy,"1111 N Fry Rd, Katy TX 77449","1111 N Fry Rd, Katy TX",Katy,TX,77449,29.787,-95.72,yes,https://serpapi.com/home-depot-stores-us.json,https://simplemaps.com/data/business/home-depot
537,537,Euless,"251 S Industrial Blvd, Euless TX 76040","251 S Industrial Blvd, Euless TX",Euless,TX,76040,32.835,-97.098,yes,https://serpapi.com/home-depot-stores-us.json,https://simplemaps.com/data/business/home-depot
539,539,Plano,"1224 N Central Expy, Plano TX 75074","1224 N Central Expy, Plano TX",Plano,TX,75074,33.016,-96.707,yes,https://serpapi.com/home-depot-stores-us.json,https://simplemaps.com/data/business/home-depot
540,540,North Richland,"6501 Ne Loop 820, N Richland TX 76180","6501 Ne Loop 820, N Richland TX",North Richland Hills,TX,76180,32.842,-97.244,yes,https://serpapi.com/home-depot-stores-us.json,https://simplemaps.com/data/business/home-depot
541,541,Arlington,"4611 S Cooper St, Arlington TX 76017","4611 S Cooper St, Arlington TX",Arlington,TX,76017,32.672,-97.132,yes,https://serpapi.com/home-depot-stores-us.json,https://simplemaps.com/data/business/home-depot
542,542,Fort Worth,"4850 Sw Loop 820 # R Blvd R, Ft Worth TX 76109","4850 Sw Loop 820 # R Blvd R, Ft Worth TX",Fort Worth,TX,76109,32.687,-97.399,yes,https://serpapi.com/home-depot-stores-us.json,https://simplemaps.com/data/business/home-depot
550,550,White Rock,"11255 Garland Rd, White Rock TX 75218","11255 Garland Rd, White Rock TX",Dallas,TX,75218,32.849,-96.686,yes,https://serpapi.com/home-depot-stores-us.json,https://simplemaps.com/data/business/home-depot
551,551,West Plano,"6200 W Park Blvd, W Plano TX 75093","6200 W Park Blvd, W Plano TX",Plano,TX,75093,33.026,-96.833,yes,https://serpapi.com/home-depot-stores-us.json,https://simplemaps.com/data/business/home-depot
552,552,Westmoreland,"2901 W Wheatland Rd, Westmoreland TX 75237","2901 W Wheatland Rd, Westmoreland TX",Dallas,TX,75237,32.648,-96.869,yes,https://serpapi.com/home-depot-stores-us.json,https://simplemaps.com/data/business/home-depot
553,553,Garland,"3261 N George Bush Hwy, Garland TX 75040","3261 N George Bush Hwy, Garland TX",Garland,TX,75040,32.946,-96.616,yes,https://serpapi.com/home-depot-stores-us.json,https://simplemaps.com/data/business/home-depot
554,554,North Arlington,"201 Rd To Six Flags West, N Arlington TX 76011","201 Rd To Six Flags West, N Arlington TX",Arlington,TX,76011,32.758,-97.107,yes,https://serpapi.com/home-depot-stores-us.json,https://simplemaps.com/data/business/home-depot
555,555,Balch Springs,"12005 Elam Rd, Balch Springs TX 75180","12005 Elam Rd, Balch Springs TX",Balch Springs,TX,75180,32.721,-96.618,yes,https://serpapi.com/home-depot-stores-us.json,https://simplemaps.com/data/business/home-depot
556,556,Richardson,"2140 Jupiter Rd, Richardson TX 75044","2140 Jupiter Rd, Richardson TX",Garland,TX,75044,32.933,-96.681,yes,https://serpapi.com/home-depot-stores-us.json,https://simplemaps.com/data/business/home-depot
561,561,Midland,"4009 N Midland, Midland TX 79707","4009 N Midland, Midland TX",Midland,TX,79707,32.022,-102.147,yes,https://serpapi.com/home-depot-stores-us.json,https://simplemaps.com/data/business/home-depot
562,562,Odessa,"5181 E 42nd St, Odessa TX 79762","5181 E 42nd St, Odessa TX",Odessa,TX,79762,31.896,-102.327,yes,https://serpapi.com/home-depot-stores-us.json,https://simplemaps.com/data/business/home-depot
563,563,Irving,"3200 W Irving Blvd, Irving TX 75061","3200 W Irving Blvd, Irving TX",Irving,TX,75061,32.834,-96.991,yes,https://serpapi.com/home-depot-stores-us.json,https://simplemaps.com/data/business/home-depot
564,564,NW Dallas,,,Dallas,TX,0,32.907,-96.885,no,,https://simplemaps.com/data/business/home-depot
565,565,Pasadena,"5455 Fairmont Pkwy, Pasadena TX 77505","5455 Fairmont Pkwy, Pasadena TX",Pasadena,TX,77505,29.652,-95.159,yes,https://serpapi.com/home-depot-stores-us.json,https://simplemaps.com/data/business/home-depot
566,566,Pin Oak,"5445 West Loop South, Pin Oak TX 77081","5445 West Loop South, Pin Oak TX",Houston,TX,77081,29.723,-95.457,yes,https://serpapi.com/home-depot-stores-us.json,https://simplemaps.com/data/business/home-depot
568,568,Spring,,,Spring,TX,0,30.056,-95.434,no,,https://simplemaps.com/data/business/home-depot
569,569,Market Street,"13400 Market St, Market Street TX 77015","13400 Market St, Market Street TX",Houston,TX,77015,29.769,-95.187,yes,https://serpapi.com/home-depot-stores-us.json,https://simplemaps.com/data/business/home-depot
571,571,Lumpkin ,"1100 Lumpkin Rd, Lumpkin TX 77043","1100 Lumpkin Rd, Lumpkin TX",Houston,TX,77043,29.788,-95.558,yes,https://serpapi.com/home-depot-stores-us.json,https://simplemaps.com/data/business/home-depot
574,574,Sugar Land,"15505 Sw Freeway, Sugar Land TX 77478","15505 Sw Freeway, Sugar Land TX",Sugar Land,TX,77478,29.603,-95.615,yes,https://serpapi.com/home-depot-stores-us.json,https://simplemaps.com/data/business/home-depot
576,576,Humble,,,Humble,TX,0,30.01,-95.263,no,,https://simplemaps.com/data/business/home-depot
577,577,Brinkman,"999 North Loop West, Brinkman TX 77008","999 North Loop West, Brinkman TX",Houston,TX,77008,29.811,-95.418,yes,https://serpapi.com/home-depot-stores-us.json,https://simplemaps.com/data/business/home-depot
578,578,Westbury Square,,,Houston,TX,0,29.656,-95.479,no,,https://simplemaps.com/data/business/home-depot
580,580,Windsor Park,"4909 Windsor Hill, Windsor Park TX 78239","4909 Windsor Hill, Windsor Park TX",San Antonio,TX,78239,29.514,-98.394,yes,https://serpapi.com/home-depot-stores-us.json,https://simplemaps.com/data/business/home-depot
581,581,Cambray,"5101 Cambray Dr, Cambray TX 78229","5101 Cambray Dr, Cambray TX",San Antonio,TX,78229,29.492,-98.587,yes,https://serpapi.com/home-depot-stores-us.json,https://simplemaps.com/data/business/home-depot
582,582,Bitters Rd,"1066 Central Pkwy S, Bitters Rd TX 78232","1066 Central Pkwy S, Bitters Rd TX",San Antonio,TX,78232,29.566,-98.478,yes,https://serpapi.com/home-depot-stores-us.json,https://simplemaps.com/data/business/home-depot
583,583,North Denton,,,Denton,TX,0,33.23,-97.172,no,,https://simplemaps.com/data/business/home-depot
584,584,Beltway 8,"6800 W Sam Houston Pkwy S Pkwy South, Beltway 8TX 77072","6800 W Sam Houston Pkwy S Pkwy South, Beltway 8TX",Houston,TX,77072,29.703,-95.559,yes,https://serpapi.com/home-depot-stores-us.json,https://simplemaps.com/data/business/home-depot
585,585,West Houston,"2828 S Hwy 6, W Houston TX 77082","2828 S Hwy 6, W Houston TX",Houston,TX,77082,29.728,-95.645,yes,https://serpapi.com/home-depot-stores-us.json,https://simplemaps.com/data/business/home-depot
586,586,SW San Antonio,,,San Antonio,TX,0,29.431,-98.648,no,,https://simplemaps.com/data/business/home-depot
587,587,Southlake,,,Southlake,TX,0,32.943,-97.125,no,,https://simplemaps.com/data/business/home-depot
588,588,North San Antonio,,,San Antonio,TX,0,29.566,-98.59,no,,https://simplemaps.com/data/business/home-depot
589,589,Lemmon Avenue,"6110 Lemmon Ave, Lemmon Ave TX 75209","6110 Lemmon Ave, Lemmon Ave TX",Dallas,TX,75209,32.834,-96.828,yes,https://serpapi.com/home-depot-stores-us.json,https://simplemaps.com/data/business/home-depot
597,597,Anna,,,Anna,TX,0,33.353,-96.583,no,,https://simplemaps.com/data/business/home-depot
598,598,Forest Lane,"11682 Forest Central Drive, Forest Lane TX 75243","11682 Forest Central Drive, Forest Lane TX",Dallas,TX,75243,32.907,-96.767,yes,https://serpapi.com/home-depot-stores-us.json,https://simplemaps.com/data/business/home-depot
601,601,Corona,"490 Mckinley St, Corona CA 92879","490 Mckinley St, Corona CA",Corona,CA,92879,33.885,-117.525,yes,https://serpapi.com/home-depot-stores-us.json,https://simplemaps.com/data/business/home-depot
603,603,Tustin,"2782 El Camino Real, Tustin CA 92782","2782 El Camino Real, Tustin CA",Tustin,CA,92782,33.724,-117.796,yes,https://serpapi.com/home-depot-stores-us.json,https://simplemaps.com/data/business/home-depot
606,606,Santa Ana,"3500 W Macarthur Blvd, Santa Ana CA 92704","3500 W Macarthur Blvd, Santa Ana CA",Santa Ana,CA,92704,33.701,-117.916,yes,https://serpapi.com/home-depot-stores-us.json,https://simplemaps.com/data/business/home-depot
607,607,Industry,"18131 Gale Ave, Industry CA 91748","18131 Gale Ave, Industry CA",City of Industry,CA,91748,33.996,-117.908,yes,https://serpapi.com/home-depot-stores-us.json,https://simplemaps.com/data/business/home-depot
608,608,Cerritos,"10930 Alondra Blvd, Cerritos CA 90703","10930 Alondra Blvd, Cerritos CA",Cerritos,CA,90703,33.886,-118.101,yes,https://serpapi.com/home-depot-stores-us.json,https://simplemaps.com/data/business/home-depot
609,609,San Fernando,"12960 Foothill Blvd, San Fernando CA 91340","12960 Foothill Blvd, San Fernando CA",San Fernando,CA,91340,34.294,-118.419,yes,https://serpapi.com/home-depot-stores-us.json,https://simplemaps.com/data/business/home-depot
610,610,South San Bernardino,"695 E Hospitality Ln, S San Bernardino CA 92408","695 E Hospitality Ln, S San Bernardino CA",San Bernardino,CA,92408,34.065,-117.271,yes,https://serpapi.com/home-depot-stores-us.json,https://simplemaps.com/data/business/home-depot
611,611,Gardena,"740 182nd St, Gardena CA 90248","740 182nd St, Gardena CA",Gardena,CA,90248,33.868,-118.287,yes,https://serpapi.com/home-depot-stores-us.json,https://simplemaps.com/data/business/home-depot
612,612,Canoga Park,,,Canoga Park,CA,0,34.219,-118.594,no,,https://simplemaps.com/data/business/home-depot
614,614,Mission Viejo,"27952 Hillcrest, Mission Viejo CA 92692","27952 Hillcrest, Mission Viejo CA",Mission Viejo,CA,92692,33.557,-117.66,yes,https://serpapi.com/home-depot-stores-us.json,https://simplemaps.com/data/business/home-depot
615,615,Orange,"435 W Katella Ave, Orange, CA CA 92867","435 W Katella Ave, Orange, CA CA",Orange,CA,92867,33.811,-117.857,yes,https://serpapi.com/home-depot-stores-us.json,https://simplemaps.com/data/business/home-depot
616,616,Moreno Valley,"12255 Pigeon Pass Rd, Moreno Valley CA 92557","12255 Pigeon Pass Rd, Moreno Valley CA",Moreno Valley,CA,92557,33.943,-117.263,yes,https://serpapi.com/home-depot-stores-us.json,https://simplemaps.com/data/business/home-depot
618,618,Torrance,"24451 Crenshaw Blvd, Torrance CA 90505","24451 Crenshaw Blvd, Torrance CA",Torrance,CA,90505,33.803,-118.33,yes,https://serpapi.com/home-depot-stores-us.json,https://simplemaps.com/data/business/home-depot
620,620,Hawthorne,"14603 Ocean Gate Ave, Hawthorne CA 90250","14603 Ocean Gate Ave, Hawthorne CA",Hawthorne,CA,90250,33.899,-118.369,yes,https://serpapi.com/home-depot-stores-us.json,https://simplemaps.com/data/business/home-depot
625,625,San Leandro,"1933 Davis St, San Leandro CA 94577","1933 Davis St, San Leandro CA",San Leandro,CA,94577,37.717,-122.179,yes,https://serpapi.com/home-depot-stores-us.json,https://simplemaps.com/data/business/home-depot
627,627,Emeryville,"3838 Hollis Ave, Emeryville CA 94608","3838 Hollis Ave, Emeryville CA",Emeryville,CA,94608,37.828,-122.284,yes,https://serpapi.com/home-depot-stores-us.json,https://simplemaps.com/data/business/home-depot
628,628,San Carlos,"1125 Old Cty Rd, San Carlos CA 94070","1125 Old Cty Rd, San Carlos CA",San Carlos,CA,94070,37.501,-122.25,yes,https://serpapi.com/home-depot-stores-us.json,https://simplemaps.com/data/business/home-depot
629,629,Pleasanton,"6000 Johnson Dr, Pleasanton CA 94588","6000 Johnson Dr, Pleasanton CA",Pleasanton,CA,94588,37.699,-121.909,yes,https://serpapi.com/home-depot-stores-us.json,https://simplemaps.com/data/business/home-depot
630,630,Santa Clara,"2435 Lafayette St, Santa Clara CA 95050","2435 Lafayette St, Santa Clara CA",Santa Clara,CA,95050,37.365,-121.948,yes,https://serpapi.com/home-depot-stores-us.json,https://simplemaps.com/data/business/home-depot
632,632,San Mateo,"2001 Chess Dr, San Mateo CA 94404","2001 Chess Dr, San Mateo CA",San Mateo,CA,94404,37.564,-122.281,yes,https://serpapi.com/home-depot-stores-us.json,https://simplemaps.com/data/business/home-depot
633,633,Vallejo,"1175 Admiral Callaghan Ln, Vallejo CA 94591","1175 Admiral Callaghan Ln, Vallejo CA",Vallejo,CA,94591,38.136,-122.217,yes,https://serpapi.com/home-depot-stores-us.json,https://simplemaps.com/data/business/home-depot
634,634,Concord,"2090 Meridan Park Blvd, Concord CA 94520","2090 Meridan Park Blvd, Concord CA",Concord,CA,94520,37.975,-122.055,yes,https://serpapi.com/home-depot-stores-us.json,https://simplemaps.com/data/business/home-depot
635,635,Union City,,,Union City,CA,0,37.604,-122.082,no,,https://simplemaps.com/data/business/home-depot
636,636,Roseville,"324 N Sunrise Ave, Roseville CA 95661","324 N Sunrise Ave, Roseville CA",Roseville,CA,95661,38.754,-121.263,yes,https://serpapi.com/home-depot-stores-us.json,https://simplemaps.com/data/business/home-depot
637,637,Fairfield,,,Fairfield,CA,0,38.247,-122.07,no,,https://simplemaps.com/data/business/home-depot
638,638,Palmdale,,,Palmdale,CA,0,34.602,-118.135,no,,https://simplemaps.com/data/business/home-depot
639,639,Colma II,,,Colma,CA,0,37.675,-122.467,no,,https://simplemaps.com/data/business/home-depot
640,640,Kifer Rd,,,Sunnyvale,CA,0,37.376,-122.016,no,,https://simplemaps.com/data/business/home-depot
641,641,Rohnert Park,"4825 Redwood Dr, Rohnert Pk CA 94928","4825 Redwood Dr, Rohnert Pk CA",Rohnert Park,CA,94928,38.365,-122.716,yes,https://serpapi.com/home-depot-stores-us.json,https://simplemaps.com/data/business/home-depot
642,642,Campbell,,,Campbell,CA,0,37.292,-121.941,no,,https://simplemaps.com/data/business/home-depot
643,643,El Cerrito,,,El Cerrito,CA,0,37.93,-122.323,no,,https://simplemaps.com/data/business/home-depot
644,644,Pittsburg,"2300 N Park Blvd, Pittsburg CA 94565","2300 N Park Blvd, Pittsburg CA",Pittsburg,CA,94565,38.011,-121.859,yes,https://serpapi.com/home-depot-stores-us.json,https://simplemaps.com/data/business/home-depot
645,645,Rancho Cucamonga,"11884 Foothill Blvd, Rancho Cucamonga CA 91730","11884 Foothill Blvd, Rancho Cucamonga CA",Rancho Cucamonga,CA,91730,34.109,-117.547,yes,https://serpapi.com/home-depot-stores-us.json,https://simplemaps.com/data/business/home-depot
647,647,Westminster,"6633 Westminister Blvd, Westminster CA 92683","6633 Westminister Blvd, Westminster CA",Westminster,CA,92683,33.761,-118.013,yes,https://serpapi.com/home-depot-stores-us.json,https://simplemaps.com/data/business/home-depot
648,648,Signal Hill,"2450 Cherry Ave, Signal Hill CA 90755","2450 Cherry Ave, Signal Hill CA",Signal Hill,CA,90755,33.802,-118.166,yes,https://serpapi.com/home-depot-stores-us.json,https://simplemaps.com/data/business/home-depot
649,649,Glendale,,,Glendale,CA,0,34.143,-118.268,no,,https://simplemaps.com/data/business/home-depot
650,650,Carmichael,,,Carmichael,CA,0,38.663,-121.326,no,,https://simplemaps.com/data/business/home-depot
651,651,Florin Rd,,,Sacramento,CA,0,38.498,-121.453,no,,https://simplemaps.com/data/business/home-depot
652,652,Rancho Cordova,,,Rancho Cordova,CA,0,38.6,-121.268,no,,https://simplemaps.com/data/business/home-depot
653,653,Santa Clarita,,,Santa Clarita,CA,0,34.419,-118.497,no,,https://simplemaps.com/data/business/home-depot
654,654,Commerce,"7015 Telegraph Rd, Commerce CA 90040","7015 Telegraph Rd, Commerce CA",Commerce,CA,90040,33.987,-118.135,yes,https://serpapi.com/home-depot-stores-us.json,https://simplemaps.com/data/business/home-depot
657,657,San Rafael,"111 Shoreline Pkwy, San Rafael CA 94901","111 Shoreline Pkwy, San Rafael CA",San Rafael,CA,94901,37.953,-122.493,yes,https://serpapi.com/home-depot-stores-us.json,https://simplemaps.com/data/business/home-depot
658,658,Chula Vista,"725 Plz Court, Chula Vista CA 91910","725 Plz Court, Chula Vista CA",Chula Vista,CA,91910,32.638,-117.032,yes,https://serpapi.com/home-depot-stores-us.json,https://simplemaps.com/data/business/home-depot
659,659,Lemon Grove,"7530 Broadway, Lemon Grove CA 91945","7530 Broadway, Lemon Grove CA",Lemon Grove,CA,91945,32.743,-117.036,yes,https://serpapi.com/home-depot-stores-us.json,https://simplemaps.com/data/business/home-depot
660,660,Encinitas,"1001 N El Camino Real, Encinitas CA 92024","1001 N El Camino Real, Encinitas CA",Encinitas,CA,92024,33.065,-117.261,yes,https://serpapi.com/home-depot-stores-us.json,https://simplemaps.com/data/business/home-depot
662,662,Stockton,"3818 E Hammer Ln, Stockton CA 95212","3818 E Hammer Ln, Stockton CA",Stockton,CA,95212,38.02,-121.266,yes,https://serpapi.com/home-depot-stores-us.json,https://simplemaps.com/data/business/home-depot
663,663,Fresno,"3272 W Shaw Ave, Fresno CA 93711","3272 W Shaw Ave, Fresno CA",Fresno,CA,93711,36.81,-119.85,yes,https://serpapi.com/home-depot-stores-us.json,https://simplemaps.com/data/business/home-depot
664,664,Clovis,"845 W Shaw Avenue, Clovis CA 93612","845 W Shaw Avenue, Clovis CA",Clovis,CA,93612,36.81,-119.728,yes,https://serpapi.com/home-depot-stores-us.json,https://simplemaps.com/data/business/home-depot
665,665,Victorville,"15150 Bear Valley Rd, Victorville CA 92395","15150 Bear Valley Rd, Victorville CA",Victorville,CA,92395,34.473,-117.333,yes,https://serpapi.com/home-depot-stores-us.json,https://simplemaps.com/data/business/home-depot
667,667,Rancho Mirage,"34249 Monterey Ave, Rancho Mirage CA 92270","34249 Monterey Ave, Rancho Mirage CA",Rancho Mirage,CA,92270,33.799,-116.389,yes,https://serpapi.com/home-depot-stores-us.json,https://simplemaps.com/data/business/home-depot
668,668,Murrieta,"25100 Madison Ave, Murrieta CA 92562","25100 Madison Ave, Murrieta CA",Murrieta,CA,92562,33.557,-117.198,yes,https://serpapi.com/home-depot-stores-us.json,https://simplemaps.com/data/business/home-depot
669,669,Carmel Mtn,"12185 Carmel Mountain Rd, Carmel Mtn CA 92128","12185 Carmel Mountain Rd, Carmel Mtn CA",San Diego,CA,92128,32.985,-117.075,yes,https://serpapi.com/home-depot-stores-us.json,https://simplemaps.com/data/business/home-depot
671,671,Imperial Beach,"525 Saturn Blvd, Imperial Beach CA 92154","525 Saturn Blvd, Imperial Beach CA",San Diego,CA,92154,32.587,-117.092,yes,https://serpapi.com/home-depot-stores-us.json,https://simplemaps.com/data/business/home-depot
673,673,Santee,"255 Town Ctr Pky, Santee CA 92071","255 Town Ctr Pky, Santee CA",Santee,CA,92071,32.841,-116.985,yes,https://serpapi.com/home-depot-stores-us.json,https://simplemaps.com/data/business/home-depot
674,674,Sports Arena,"3555 Sports Arena Blvd, Sports Arena CA 92110","3555 Sports Arena Blvd, Sports Arena CA",San Diego,CA,92110,32.753,-117.213,yes,https://serpapi.com/home-depot-stores-us.json,https://simplemaps.com/data/business/home-depot
679,679,Oceanside,"3838 W Vista Way, Oceanside CA 92056","3838 W Vista Way, Oceanside CA",Oceanside,CA,92056,33.185,-117.295,yes,https://serpapi.com/home-depot-stores-us.json,https://simplemaps.com/data/business/home-depot
680,680,Genesee,"4255 Genesee Ave, Genesee CA 92117","4255 Genesee Ave, Genesee CA",San Diego,CA,92117,32.823,-117.182,yes,https://serpapi.com/home-depot-stores-us.json,https://simplemaps.com/data/business/home-depot
683,683,San Bernardino,"1055 W 21st St, San Bernardino CA 92405","1055 W 21st St, San Bernardino CA",San Bernardino,CA,92405,34.133,-117.307,yes,https://serpapi.com/home-depot-stores-us.json,https://simplemaps.com/data/business/home-depot
684,684,La Mirada,"12300 La Mirada Blvd, La Mirada CA 90638","12300 La Mirada Blvd, La Mirada CA",La Mirada,CA,90638,33.919,-118.01,yes,https://serpapi.com/home-depot-stores-us.json,https://simplemaps.com/data/business/home-depot
687,687,Upland,"250 S Mountain Ave, Upland CA 91786","250 S Mountain Ave, Upland CA",Upland,CA,91786,34.091,-117.67,yes,https://serpapi.com/home-depot-stores-us.json,https://simplemaps.com/data/business/home-depot
701,701,Johnson City,"3207 Peoples St, Johnson City TN 37604","3207 Peoples St, Johnson City TN",Johnson City,TN,37604,36.348,-82.398,yes,https://serpapi.com/home-depot-stores-us.json,https://simplemaps.com/data/business/home-depot
702,702,Kingsport,"2000 Harrell Rd, Kingsport TN 37660","2000 Harrell Rd, Kingsport TN",Kingsport,TN,37660,36.554,-82.531,yes,https://serpapi.com/home-depot-stores-us.json,https://simplemaps.com/data/business/home-depot
703,703,Truse In-Town,"800 Truse Parkway, Truse In-Town TN 38117","800 Truse Parkway, Truse In-Town TN",Memphis,TN,38117,35.109,-89.892,yes,https://serpapi.com/home-depot-stores-us.json,https://simplemaps.com/data/business/home-depot
704,704,Cordova,"8010 Giacosa Pl, Cordova TN 38133","8010 Giacosa Pl, Cordova TN",Memphis,TN,38133,35.199,-89.796,yes,https://serpapi.com/home-depot-stores-us.json,https://simplemaps.com/data/business/home-depot
707,707,Murfreesboro,"1750 Old Fort Pkwy, Murfreesboro TN 37129","1750 Old Fort Pkwy, Murfreesboro TN",Murfreesboro,TN,37129,35.849,-86.423,yes,https://serpapi.com/home-depot-stores-us.json,https://simplemaps.com/data/business/home-depot
711,711,Charlottesville,,,Charlottesville,VA,0,38.078,-78.472,no,,https://simplemaps.com/data/business/home-depot
720,720,Madison,"1584 Gallatin Pike North, Madison TN 37115","1584 Gallatin Pike North, Madison TN",Madison,TN,37115,36.293,-86.704,yes,https://serpapi.com/home-depot-stores-us.json,https://simplemaps.com/data/business/home-depot
721,721,Antioch,"1155 Bell Rd, Antioch TN 37013","1155 Bell Rd, Antioch TN",Antioch,TN,37013,36.046,-86.666,yes,https://serpapi.com/home-depot-stores-us.json,https://simplemaps.com/data/business/home-depot
722,722,Bellevue,"7665 Hwy 70 South, Bellevue TN 37221","7665 Hwy 70 South, Bellevue TN",Nashville,TN,37221,36.077,-86.954,yes,https://serpapi.com/home-depot-stores-us.json,https://simplemaps.com/data/business/home-depot
723,723,Brentwood,"8101 Moores Ln, Brentwood TN 37027","8101 Moores Ln, Brentwood TN",Brentwood,TN,37027,35.966,-86.803,yes,https://serpapi.com/home-depot-stores-us.json,https://simplemaps.com/data/business/home-depot
724,724,Maryville,"943 Foothills Mall Dr, Maryville TN 37801","943 Foothills Mall Dr, Maryville TN",Maryville,TN,37801,35.754,-83.996,yes,https://serpapi.com/home-depot-stores-us.json,https://simplemaps.com/data/business/home-depot
725,725,Hickory Hill,"3469 Riverdale Rd, Hickory Hill TN 38115","3469 Riverdale Rd, Hickory Hill TN",Memphis,TN,38115,35.054,-89.831,yes,https://serpapi.com/home-depot-stores-us.json,https://simplemaps.com/data/business/home-depot
726,726,Clarksville,"2630 Wilma Rudolph Blvd, Clarksville, TN TN 37040","2630 Wilma Rudolph Blvd, Clarksville, TN TN",Clarksville,TN,37040,36.582,-87.301,yes,https://serpapi.com/home-depot-stores-us.json,https://simplemaps.com/data/business/home-depot
727,727,Jackson,"1120 Vann Dr, Jackson, TN TN 38305","1120 Vann Dr, Jackson, TN TN",Jackson,TN,38305,35.666,-88.856,yes,https://serpapi.com/home-depot-stores-us.json,https://simplemaps.com/data/business/home-depot
728,728,North Knoxville,,,Knoxville,TN,0,36.005,-84.022,no,,https://simplemaps.com/data/business/home-depot
729,729,Collierville,"345 Market Blvd, Collierville TN 38017","345 Market Blvd, Collierville TN",Collierville,TN,38017,35.05,-89.696,yes,https://serpapi.com/home-depot-stores-us.json,https://simplemaps.com/data/business/home-depot
730,730,West Knoxville,"9361 Kingston Pike, W Knoxville TN 37922","9361 Kingston Pike, W Knoxville TN",Knoxville,TN,37922,35.912,-84.096,yes,https://serpapi.com/home-depot-stores-us.json,https://simplemaps.com/data/business/home-depot
731,731,Centerline,"4710 Ctr Line Dr, Centerline TN 37917","4710 Ctr Line Dr, Centerline TN",Knoxville,TN,37917,35.993,-83.934,yes,https://serpapi.com/home-depot-stores-us.json,https://simplemaps.com/data/business/home-depot
732,732,Thompson Lane,"2535 Powell Ave, Thompson Lane TN 37204","2535 Powell Ave, Thompson Lane TN",Nashville,TN,37204,36.107,-86.766,yes,https://serpapi.com/home-depot-stores-us.json,https://simplemaps.com/data/business/home-depot
733,733,Hermitage,"5010 Old Hickory Blvd, Hermitage TN 37076","5010 Old Hickory Blvd, Hermitage TN",Hermitage,TN,37076,36.194,-86.615,yes,https://serpapi.com/home-depot-stores-us.json,https://simplemaps.com/data/business/home-depot
734,734,Franklin,"224 South Royal Oaks Blvd, Franklin,TN TN 37064","224 South Royal Oaks Blvd, Franklin,TN TN",Franklin,TN,37064,35.91,-86.828,yes,https://serpapi.com/home-depot-stores-us.json,https://simplemaps.com/data/business/home-depot
735,735,Hendersonville,"205 N Anderson Lane, Hendersonville,TN TN 37075","205 N Anderson Lane, Hendersonville,TN TN",Hendersonville,TN,37075,36.318,-86.599,yes,https://serpapi.com/home-depot-stores-us.json,https://simplemaps.com/data/business/home-depot
736,736,Oak Ridge,"175 Laboratory Rd, Oak Ridge TN 37830","175 Laboratory Rd, Oak Ridge TN",Oak Ridge,TN,37830,36.027,-84.23,yes,https://serpapi.com/home-depot-stores-us.json,https://simplemaps.com/data/business/home-depot
737,737,Bartlett/Stage Rd,"4950 Stage Rd, Bartlett/Stage Rd TN 38128","4950 Stage Rd, Bartlett/Stage Rd TN",Memphis,TN,38128,35.209,-89.9,yes,https://serpapi.com/home-depot-stores-us.json,https://simplemaps.com/data/business/home-depot
739,739,Sevierville,"128 Allensville Road, Sevierville TN 37876","128 Allensville Road, Sevierville TN",Sevierville,TN,37876,35.878,-83.567,yes,https://serpapi.com/home-depot-stores-us.json,https://simplemaps.com/data/business/home-depot
740,740,Lenoir City,"250 Abbie Dr, Lenoir City TN 37772","250 Abbie Dr, Lenoir City TN",Lenoir City,TN,37772,35.82,-84.263,yes,https://serpapi.com/home-depot-stores-us.json,https://simplemaps.com/data/business/home-depot
742,742,Chattanooga,"7421 Commons Blvd, Chattanooga TN 37421","7421 Commons Blvd, Chattanooga TN",Chattanooga,TN,37421,35.036,-85.147,yes,https://serpapi.com/home-depot-stores-us.json,https://simplemaps.com/data/business/home-depot
743,743,Cleveland,"546 Paul Huff Pkwy Nw, Cleveland TN 37312","546 Paul Huff Pkwy Nw, Cleveland TN",Cleveland,TN,37312,35.211,-84.854,yes,https://serpapi.com/home-depot-stores-us.json,https://simplemaps.com/data/business/home-depot
744,744,Morristown,,,Morristown,TN,0,36.21,-83.318,no,,https://simplemaps.com/data/business/home-depot
745,745,Lebanon,"955 S Hartmann Drive, Lebanon,TN TN 37090","955 S Hartmann Drive, Lebanon,TN TN",Lebanon,TN,37090,36.186,-86.322,yes,https://serpapi.com/home-depot-stores-us.json,https://simplemaps.com/data/business/home-depot
747,747,Winchester,"2965 Decherd Blvd, Winchester,TN TN 37398","2965 Decherd Blvd, Winchester,TN TN",Winchester,TN,37398,35.222,-86.104,yes,https://serpapi.com/home-depot-stores-us.json,https://simplemaps.com/data/business/home-depot
748,748,Manchester,"187 Roberts Blvd, Manchester TN 37355","187 Roberts Blvd, Manchester TN",Manchester,TN,37355,35.452,-86.044,yes,https://serpapi.com/home-depot-stores-us.json,https://simplemaps.com/data/business/home-depot
770,770,North Chattanooga,"1944 Northpoint Blvd, N Chattanooga TN 37343","1944 Northpoint Blvd, N Chattanooga TN",Hixson,TN,37343,35.137,-85.243,yes,https://serpapi.com/home-depot-stores-us.json,https://simplemaps.com/data/business/home-depot
772,772,Pulaski,"1451 W College St, Pulaski TN 38478","1451 W College St, Pulaski TN",Pulaski,TN,38478,35.202,-87.057,yes,https://serpapi.com/home-depot-stores-us.json,https://simplemaps.com/data/business/home-depot
773,773,SE Knoxville,"140 Green Road, Se Knoxville TN 37920","140 Green Road, Se Knoxville TN",Knoxville,TN,37920,35.913,-83.846,yes,https://serpapi.com/home-depot-stores-us.json,https://simplemaps.com/data/business/home-depot
775,775,Spring Hill,"5411 Columbia Hwy, Spring Hill,TN TN 37174","5411 Columbia Hwy, Spring Hill,TN TN",Spring Hill,TN,37174,35.768,-86.919,yes,https://serpapi.com/home-depot-stores-us.json,https://simplemaps.com/data/business/home-depot
776,776,Smyrna,"551 President Place, Smyrna TN 37167","551 President Place, Smyrna TN",Smyrna,TN,37167,35.981,-86.552,yes,https://serpapi.com/home-depot-stores-us.json,https://simplemaps.com/data/business/home-depot
778,778,Nashville Briley Parkway,"1015 Joyce Lane, Nashville Briley Parkway TN 37216","1015 Joyce Lane, Nashville Briley Parkway TN",Nashville,TN,37216,36.235,-86.728,yes,https://serpapi.com/home-depot-stores-us.json,https://simplemaps.com/data/business/home-depot
779,779,Covington,"110 Holly Grove Road, Covington,TN TN 38019","110 Holly Grove Road, Covington,TN TN",Covington,TN,38019,35.544,-89.668,yes,https://serpapi.com/home-depot-stores-us.json,https://simplemaps.com/data/business/home-depot
801,801,West Mobile,"755 Schillinger Rd S, W Mobile AL 36695","755 Schillinger Rd S, W Mobile AL",Mobile,AL,36695,30.675,-88.224,yes,https://serpapi.com/home-depot-stores-us.json,https://simplemaps.com/data/business/home-depot
802,802,Foley,"2899 S Mckenzie St, Foley AL 36535","2899 S Mckenzie St, Foley AL",Foley,AL,36535,30.372,-87.68,yes,https://serpapi.com/home-depot-stores-us.json,https://simplemaps.com/data/business/home-depot
803,803,West Huntsville,"4045 Lawson Ridge Dr, W Huntsville AL 35757","4045 Lawson Ridge Dr, W Huntsville AL",Madison,AL,35757,34.757,-86.739,yes,https://serpapi.com/home-depot-stores-us.json,https://simplemaps.com/data/business/home-depot
804,804,North Huntsville,"1035 Memorial Pkwy Nw, N Huntsville AL 35801","1035 Memorial Pkwy Nw, N Huntsville AL",Huntsville,AL,35801,34.742,-86.603,yes,https://serpapi.com/home-depot-stores-us.json,https://simplemaps.com/data/business/home-depot
805,805,Pelham,"3191 Pelham Pkwy, Pelham AL 35124","3191 Pelham Pkwy, Pelham AL",Pelham,AL,35124,33.284,-86.809,yes,https://serpapi.com/home-depot-stores-us.json,https://simplemaps.com/data/business/home-depot
806,806,Prattville,"2710 Legends Parkway, Prattville AL 36066","2710 Legends Parkway, Prattville AL",Prattville,AL,36066,32.457,-86.4,yes,https://serpapi.com/home-depot-stores-us.json,https://simplemaps.com/data/business/home-depot
808,808,Dothan,"3489 Ross Clark Cir, Dothan AL 36303","3489 Ross Clark Cir, Dothan AL",Dothan,AL,36303,31.249,-85.429,yes,https://serpapi.com/home-depot-stores-us.json,https://simplemaps.com/data/business/home-depot
809,809,Sylacauga,"41310 Us Hwy 280, Sylacauga AL 35150","41310 Us Hwy 280, Sylacauga AL",Sylacauga,AL,35150,33.172,-86.288,yes,https://serpapi.com/home-depot-stores-us.json,https://simplemaps.com/data/business/home-depot
810,810,Jasper,"1808 Hwy 78 E, Jasper,AL AL 35501","1808 Hwy 78 E, Jasper,AL AL",Jasper,AL,35501,33.845,-87.254,yes,https://serpapi.com/home-depot-stores-us.json,https://simplemaps.com/data/business/home-depot
812,812,Scottsboro,"24635 John T Reid Pkwy, Scottsboro AL 35768","24635 John T Reid Pkwy, Scottsboro AL",Scottsboro,AL,35768,34.665,-86.01,yes,https://serpapi.com/home-depot-stores-us.json,https://simplemaps.com/data/business/home-depot
813,813,East Montgomery,"10655 Chantilly Pkwy, E Montgomery AL 36117","10655 Chantilly Pkwy, E Montgomery AL",Montgomery,AL,36117,32.358,-86.131,yes,https://serpapi.com/home-depot-stores-us.json,https://simplemaps.com/data/business/home-depot
816,816,Auburn (Opelika),"2190 Tigertown Parkway, Auburn (opelika) AL 36801","2190 Tigertown Parkway, Auburn (opelika) AL",Opelika,AL,36801,32.62,-85.406,yes,https://serpapi.com/home-depot-stores-us.json,https://simplemaps.com/data/business/home-depot
817,817,Phenix City,"3784 Us Highway 431 N, Phenix City AL 36867","3784 Us Highway 431 N, Phenix City AL",Phenix City,AL,36867,32.506,-85.052,yes,https://serpapi.com/home-depot-stores-us.json,https://simplemaps.com/data/business/home-depot
818,818,Pell City,"289 Vaughan Lane, Pell City AL 35125","289 Vaughan Lane, Pell City AL",Pell City,AL,35125,33.609,-86.279,yes,https://serpapi.com/home-depot-stores-us.json,https://simplemaps.com/data/business/home-depot
863,863,Daphne,"7100 Hwy 90, Daphne AL 36526","7100 Hwy 90, Daphne AL",Daphne,AL,36526,30.654,-87.901,yes,https://serpapi.com/home-depot-stores-us.json,https://simplemaps.com/data/business/home-depot
865,865,Mobile,"851 Montlimar Dr, Mobile AL 36609","851 Montlimar Dr, Mobile AL",Mobile,AL,36609,30.673,-88.134,yes,https://serpapi.com/home-depot-stores-us.json,https://simplemaps.com/data/business/home-depot
866,866,Oxford,"350 Crystal Water Drive, Oxford,AL AL 36203","350 Crystal Water Drive, Oxford,AL AL",Oxford,AL,36203,33.605,-85.784,yes,https://serpapi.com/home-depot-stores-us.json,https://simplemaps.com/data/business/home-depot
875,875,Inverness,"4995 Highway 280, Inverness AL 35242","4995 Highway 280, Inverness AL",Birmingham,AL,35242,33.422,-86.695,yes,https://serpapi.com/home-depot-stores-us.json,https://simplemaps.com/data/business/home-depot
877,877,Tuscaloosa,"1601 13th Ave East, Tuscaloosa AL 35404","1601 13th Ave East, Tuscaloosa AL",Tuscaloosa,AL,35404,33.196,-87.518,yes,https://serpapi.com/home-depot-stores-us.json,https://simplemaps.com/data/business/home-depot
880,880,Eastwood,"7001 Crestwood Blvd, Suite 1300, Eastwood AL 35210","7001 Crestwood Blvd, Suite 1300, Eastwood AL",Birmingham,AL,35210,33.529,-86.73,yes,https://serpapi.com/home-depot-stores-us.json,https://simplemaps.com/data/business/home-depot
881,881,Hoover,"3670 Galleria Circle, Hoover AL 35244","3670 Galleria Circle, Hoover AL",Birmingham,AL,35244,33.376,-86.811,yes,https://serpapi.com/home-depot-stores-us.json,https://simplemaps.com/data/business/home-depot
882,882,Fairfield,"6405 Flintridge Dr, Fairfield AL 35064","6405 Flintridge Dr, Fairfield AL",Fairfield,AL,35064,33.478,-86.921,yes,https://serpapi.com/home-depot-stores-us.json,https://simplemaps.com/data/business/home-depot
883,883,Montgomery,"2312 Eastern Blvd, Montgomery AL 36117","2312 Eastern Blvd, Montgomery AL",Montgomery,AL,36117,32.351,-86.223,yes,https://serpapi.com/home-depot-stores-us.json,https://simplemaps.com/data/business/home-depot
884,884,Decatur,"1225 Wimberly Dr Sw, Decatur AL 35603","1225 Wimberly Dr Sw, Decatur AL",Decatur,AL,35603,34.557,-87.006,yes,https://serpapi.com/home-depot-stores-us.json,https://simplemaps.com/data/business/home-depot
887,887,Trussville,"1600 Gadsden Hwy, Trussville AL 35173","1600 Gadsden Hwy, Trussville AL",Trussville,AL,35173,33.602,-86.642,yes,https://serpapi.com/home-depot-stores-us.json,https://simplemaps.com/data/business/home-depot
888,888,South Huntsville,"10012 Memorial Pkwy Sw, S Huntsville AL 35803","10012 Memorial Pkwy Sw, S Huntsville AL",Huntsville,AL,35803,34.646,-86.567,yes,https://serpapi.com/home-depot-stores-us.json,https://simplemaps.com/data/business/home-depot
901,901,East Hanover,"902 Murray Rd, E Hanover NJ 07936","902 Murray Rd, E Hanover NJ",East Hanover,NJ,7936,40.81,-74.373,yes,https://serpapi.com/home-depot-stores-us.json,https://simplemaps.com/data/business/home-depot
902,902,Lakewood,"1900 Shorrock St, Lakewood NJ 08701","1900 Shorrock St, Lakewood NJ",Lakewood,NJ,8701,40.054,-74.162,yes,https://serpapi.com/home-depot-stores-us.json,https://simplemaps.com/data/business/home-depot
903,903,South Plainfield,"3100 Hamilton Blvd, S Plainfield NJ 07080","3100 Hamilton Blvd, S Plainfield NJ",South Plainfield,NJ,7080,40.559,-74.433,yes,https://serpapi.com/home-depot-stores-us.json,https://simplemaps.com/data/business/home-depot
904,904,Paramus,"520 Rt 17 North, Paramus NJ 07652","520 Rt 17 North, Paramus NJ",Paramus,NJ,7652,40.957,-74.072,yes,https://serpapi.com/home-depot-stores-us.json,https://simplemaps.com/data/business/home-depot
906,906,Watchung,"1515 Route 22, Watchung NJ 07069","1515 Route 22, Watchung NJ",Watchung,NJ,7069,40.642,-74.422,yes,https://serpapi.com/home-depot-stores-us.json,https://simplemaps.com/data/business/home-depot
907,907,West Long Branch,"310 State Hwy 36 Ste 100, W Long Branch NJ 07764","310 State Hwy 36 Ste 100, W Long Branch NJ",West Long Branch,NJ,7764,40.292,-74.035,yes,https://serpapi.com/home-depot-stores-us.json,https://simplemaps.com/data/business/home-depot
908,908,Clifton,"955 Bloomfield Ave, Clifton NJ 07012","955 Bloomfield Ave, Clifton NJ",Clifton,NJ,7012,40.843,-74.158,yes,https://serpapi.com/home-depot-stores-us.json,https://simplemaps.com/data/business/home-depot
909,909,Roxbury,"281 Route 10 Ste 04, Roxbury NJ 07876","281 Route 10 Ste 04, Roxbury NJ",Succasunna,NJ,7876,40.868,-74.649,yes,https://serpapi.com/home-depot-stores-us.json,https://simplemaps.com/data/business/home-depot
910,910,Secaucus,"1055 Paterson Plank Rd, Secaucus NJ 07094","1055 Paterson Plank Rd, Secaucus NJ",Secaucus,NJ,7094,40.784,-74.05,yes,https://serpapi.com/home-depot-stores-us.json,https://simplemaps.com/data/business/home-depot
912,912,Brick,"1722 Route 88, Brick NJ 08724","1722 Route 88, Brick NJ",Brick,NJ,8724,40.073,-74.13,yes,https://serpapi.com/home-depot-stores-us.json,https://simplemaps.com/data/business/home-depot
914,914,Mount Laurel,"1200 Nixon Dr, Mt Laurel NJ 08054","1200 Nixon Dr, Mt Laurel NJ",Mt Laurel,NJ,8054,39.937,-74.963,yes,https://serpapi.com/home-depot-stores-us.json,https://simplemaps.com/data/business/home-depot
915,915,915,"2445 Springfield Ave, Union/Vauxhall NJ 07088","2445 Springfield Ave, Union/Vauxhall NJ",Vauxhall,NJ,7088,40.717,-74.29,yes,https://serpapi.com/home-depot-stores-us.json,https://simplemaps.com/data/business/home-depot
916,916,Woodbridge,"373 Us Highway 9 S, Woodbridge NJ 07095","373 Us Highway 9 S, Woodbridge NJ",Woodbridge,NJ,7095,40.541,-74.293,yes,https://serpapi.com/home-depot-stores-us.json,https://simplemaps.com/data/business/home-depot
917,917,Lawnside,"310 Whitehorse Pike, Suite 1, Lawnside NJ 08045","310 Whitehorse Pike, Suite 1, Lawnside NJ",Lawnside,NJ,8045,39.87,-75.043,yes,https://serpapi.com/home-depot-stores-us.json,https://simplemaps.com/data/business/home-depot
918,918,Milltown,"401 South Main Street, Milltown NJ 08850","401 South Main Street, Milltown NJ",Milltown,NJ,8850,40.44,-74.427,yes,https://serpapi.com/home-depot-stores-us.json,https://simplemaps.com/data/business/home-depot
919,919,Riverdale,"106 Route 23, Riverdale, NJ NJ 07457","106 Route 23, Riverdale, NJ NJ",Riverdale,NJ,7457,40.989,-74.324,yes,https://serpapi.com/home-depot-stores-us.json,https://simplemaps.com/data/business/home-depot
920,920,Toms River,"1334 Lakewood Rd, Toms River NJ 08755","1334 Lakewood Rd, Toms River NJ",Toms River,NJ,8755,39.99,-74.213,yes,https://serpapi.com/home-depot-stores-us.json,https://simplemaps.com/data/business/home-depot
921,921,West Windsor,"701 Nassau Park Blvd, W Windsor NJ 08540","701 Nassau Park Blvd, W Windsor NJ",Princeton,NJ,8540,40.302,-74.683,yes,https://serpapi.com/home-depot-stores-us.json,https://simplemaps.com/data/business/home-depot
922,922,Totowa,"545 Route 46, Totowa NJ 07512","545 Route 46, Totowa NJ",Totowa,NJ,7512,40.897,-74.239,yes,https://serpapi.com/home-depot-stores-us.json,https://simplemaps.com/data/business/home-depot
925,925,Dover,"530 Mt Pleasant Ave, Dover NJ 07801","530 Mt Pleasant Ave, Dover NJ",Dover,NJ,7801,40.903,-74.564,yes,https://serpapi.com/home-depot-stores-us.json,https://simplemaps.com/data/business/home-depot
926,926,Hazlet,"3700 Hwy 35, Hazlet NJ 07730","3700 Hwy 35, Hazlet NJ",Hazlet,NJ,7730,40.422,-74.198,yes,https://serpapi.com/home-depot-stores-us.json,https://simplemaps.com/data/business/home-depot
927,927,Hamilton,"750 Us Highway 130, Hamilton NJ 08691","750 Us Highway 130, Hamilton NJ",Robbinsville,NJ,8691,40.196,-74.646,yes,https://serpapi.com/home-depot-stores-us.json,https://simplemaps.com/data/business/home-depot
928,928,Bloomfield,"60 Orange St, Bloomfield NJ 07003","60 Orange St, Bloomfield NJ",Bloomfield,NJ,7003,40.786,-74.198,yes,https://serpapi.com/home-depot-stores-us.json,https://simplemaps.com/data/business/home-depot
929,929,Deptford,"1370 Hurffville Rd, Deptford NJ 08096","1370 Hurffville Rd, Deptford NJ",Deptford Twp,NJ,8096,39.819,-75.093,yes,https://serpapi.com/home-depot-stores-us.json,https://simplemaps.com/data/business/home-depot
930,930,Egg Harbor,"6 Tower Avenue, Egg Harbor NJ 08234","6 Tower Avenue, Egg Harbor NJ",Egg Harbor Twp,NJ,8234,39.435,-74.617,yes,https://serpapi.com/home-depot-stores-us.json,https://simplemaps.com/data/business/home-depot
931,931,Phillipsburg,"1209 Us Highway 22, Phillipsburg NJ 08865","1209 Us Highway 22, Phillipsburg NJ",Phillipsburg,NJ,8865,40.681,-75.142,yes,https://serpapi.com/home-depot-stores-us.json,https://simplemaps.com/data/business/home-depot
932,932,Lodi,"99 State Route 17 North, Lodi NJ 07644","99 State Route 17 North, Lodi NJ",Lodi,NJ,7644,40.887,-74.068,yes,https://serpapi.com/home-depot-stores-us.json,https://simplemaps.com/data/business/home-depot
933,933,Howell,"1990 Route 9, Howell NJ 07731","1990 Route 9, Howell NJ",Howell,NJ,7731,40.187,-74.252,yes,https://serpapi.com/home-depot-stores-us.json,https://simplemaps.com/data/business/home-depot
934,934,Linden,"701 West Edgar Rd, Linden NJ 07036","701 West Edgar Rd, Linden NJ",Linden,NJ,7036,40.618,-74.249,yes,https://serpapi.com/home-depot-stores-us.json,https://simplemaps.com/data/business/home-depot
935,935,Jersey City,"440 State Rt 440, Jersey City NJ 07305","440 State Rt 440, Jersey City NJ",Jersey City,NJ,7305,40.711,-74.097,yes,https://serpapi.com/home-depot-stores-us.json,https://simplemaps.com/data/business/home-depot
939,939,Burlington,"2703 Route 541, Burlington NJ 08060","2703 Route 541, Burlington NJ",Westampton Twp,NJ,8060,40.011,-74.801,yes,https://serpapi.com/home-depot-stores-us.json,https://simplemaps.com/data/business/home-depot
940,940,Berlin Township,"116 Walker Ave, Berlin Township NJ 08091","116 Walker Ave, Berlin Township NJ",West Berlin,NJ,8091,39.807,-74.936,yes,https://serpapi.com/home-depot-stores-us.json,https://simplemaps.com/data/business/home-depot
941,941,Flemington,"242 Hwy 202, Flemington NJ 08822","242 Hwy 202, Flemington NJ",Flemington,NJ,8822,40.492,-74.86,yes,https://serpapi.com/home-depot-stores-us.json,https://simplemaps.com/data/business/home-depot
942,942,Washington Twsp/Monroe,"2735 Route 42, Washington Twsp/Monroe NJ 08081","2735 Route 42, Washington Twsp/Monroe NJ",Sicklerville,NJ,8081,39.719,-75.026,yes,https://serpapi.com/home-depot-stores-us.json,https://simplemaps.com/data/business/home-depot
943,943,Cape May,"21 Indian Trail Rd, Cape May NJ 08210","21 Indian Trail Rd, Cape May NJ",Cape May Court House,NJ,8210,39.046,-74.854,yes,https://serpapi.com/home-depot-stores-us.json,https://simplemaps.com/data/business/home-depot
944,944,Edison,"1035 Route 1, Edison NJ 08837","1035 Route 1, Edison NJ",Edison,NJ,8837,40.523,-74.365,yes,https://serpapi.com/home-depot-stores-us.json,https://simplemaps.com/data/business/home-depot
946,946,Vineland,"3849 South Delsea Dr, Vineland NJ 08360","3849 South Delsea Dr, Vineland NJ",Vineland,NJ,8360,39.432,-75.039,yes,https://serpapi.com/home-depot-stores-us.json,https://simplemaps.com/data/business/home-depot
947,947,Bridgewater-Route 28,"400 Promenade Blvd, Bridgewater - Rt 28NJ 08807","400 Promenade Blvd, Bridgewater - Rt 28NJ",Bridgewater,NJ,8807,40.564,-74.554,yes,https://serpapi.com/home-depot-stores-us.json,https://simplemaps.com/data/business/home-depot
949,949,Neptune,"3540 Route 66, Neptune NJ 07753","3540 Route 66, Neptune NJ",Neptune Twp,NJ,7753,40.223,-74.082,yes,https://serpapi.com/home-depot-stores-us.json,https://simplemaps.com/data/business/home-depot
950,950,Passaic,"103-179 Dayton Ave, Passaic NJ 07055","103-179 Dayton Ave, Passaic NJ",Passaic,NJ,7055,40.872,-74.121,yes,https://serpapi.com/home-depot-stores-us.json,https://simplemaps.com/data/business/home-depot
951,951,Manahawkin,"197 Route 72 West, Manahawkin NJ 08050","197 Route 72 West, Manahawkin NJ",Stafford Twp,NJ,8050,39.696,-74.264,yes,https://serpapi.com/home-depot-stores-us.json,https://simplemaps.com/data/business/home-depot
953,953,Hackettstown,"2045 State Route 57, Hackettstown NJ 07840","2045 State Route 57, Hackettstown NJ",Hackettstown,NJ,7840,40.829,-74.835,yes,https://serpapi.com/home-depot-stores-us.json,https://simplemaps.com/data/business/home-depot
954,954,Union,"930 Springfield Rd, Union - Rt 22NJ 07083","930 Springfield Rd, Union - Rt 22NJ",Union,NJ,7083,40.687,-74.303,yes,https://serpapi.com/home-depot-stores-us.json,https://simplemaps.com/data/business/home-depot
957,957,Old Bridge II,"1090 Us Highway 9, Old Bridge II NJ 08857","1090 Us Highway 9, Old Bridge II NJ",Old Bridge,NJ,8857,40.451,-74.301,yes,https://serpapi.com/home-depot-stores-us.json,https://simplemaps.com/data/business/home-depot
959,959,Paterson,"75 Mclean Blvd, Paterson NJ 07514","75 Mclean Blvd, Paterson NJ",Paterson,NJ,7514,40.934,-74.142,yes,https://serpapi.com/home-depot-stores-us.json,https://simplemaps.com/data/business/home-depot
961,961,Freehold,"300 Trotters Way, Freehold NJ 07728","300 Trotters Way, Freehold NJ",Freehold,NJ,7728,40.255,-74.293,yes,https://serpapi.com/home-depot-stores-us.json,https://simplemaps.com/data/business/home-depot
962,962,Bridgewater II-Route 202,"736 Route 202 South, Bridgewater II - Rt 202NJ 08807","736 Route 202 South, Bridgewater II - Rt 202NJ",Bridgewater,NJ,8807,40.574,-74.667,yes,https://serpapi.com/home-depot-stores-us.json,https://simplemaps.com/data/business/home-depot
963,963,Mahwah,"465 State Rt 17, Mahwah NJ 07430","465 State Rt 17, Mahwah NJ",Mahwah,NJ,7430,41.079,-74.147,yes,https://serpapi.com/home-depot-stores-us.json,https://simplemaps.com/data/business/home-depot
965,965,Montville,"79 Route 46 E, Montville NJ 07045","79 Route 46 E, Montville NJ",Montville Twp,NJ,7045,40.86,-74.322,yes,https://serpapi.com/home-depot-stores-us.json,https://simplemaps.com/data/business/home-depot
969,969,Forked River,"244 N Main Street, Forked River NJ 08731","244 N Main Street, Forked River NJ",Forked River,NJ,8731,39.848,-74.188,yes,https://serpapi.com/home-depot-stores-us.json,https://simplemaps.com/data/business/home-depot
970,970,Delran,"9000 Route 130, Delran NJ 08075","9000 Route 130, Delran NJ",Delran Twp,NJ,8075,40.025,-74.937,yes,https://serpapi.com/home-depot-stores-us.json,https://simplemaps.com/data/business/home-depot
974,974,Mantua,"320 Bridgeton Pike, Mantua NJ 08051","320 Bridgeton Pike, Mantua NJ",Mantua,NJ,8051,39.786,-75.181,yes,https://serpapi.com/home-depot-stores-us.json,https://simplemaps.com/data/business/home-depot
975,975,Absecon,"421 Absecon Blvd, Absecon NJ 08201","421 Absecon Blvd, Absecon NJ",Absecon,NJ,8201,39.417,-74.492,yes,https://serpapi.com/home-depot-stores-us.json,https://simplemaps.com/data/business/home-depot
976,976,Ewing,"1621 Nolden Ave, Ewing NJ 08638","1621 Nolden Ave, Ewing NJ",Ewing Twp,NJ,8638,40.243,-74.761,yes,https://serpapi.com/home-depot-stores-us.json,https://simplemaps.com/data/business/home-depot
977,977,Parsippany,"780 Route 46 West, Parsippany NJ 07054","780 Route 46 West, Parsippany NJ",Parsippany,NJ,7054,40.862,-74.374,yes,https://serpapi.com/home-depot-stores-us.json,https://simplemaps.com/data/business/home-depot
980,980,Newark,"399-443 Springfield Ave, Newark,NJ NJ 07103","399-443 Springfield Ave, Newark,NJ NJ",Newark,NJ,7103,40.733,-74.198,yes,https://serpapi.com/home-depot-stores-us.json,https://simplemaps.com/data/business/home-depot
981,981,Colonia,"1555 Saint Georges Avenue, Colonia NJ 07067","1555 Saint Georges Avenue, Colonia NJ",Colonia,NJ,7067,40.591,-74.291,yes,https://serpapi.com/home-depot-stores-us.json,https://simplemaps.com/data/business/home-depot
982,982,East Windsor,"739 Route 33 West, E Windsor NJ 08520","739 Route 33 West, E Windsor NJ",East Windsor Twp,NJ,8520,40.257,-74.545,yes,https://serpapi.com/home-depot-stores-us.json,https://simplemaps.com/data/business/home-depot
983,983,Hackensack,"450 Hackensack Ave, Hackensack NJ 07601","450 Hackensack Ave, Hackensack NJ",Hackensack,NJ,7601,40.91,-74.032,yes,https://serpapi.com/home-depot-stores-us.json,https://simplemaps.com/data/business/home-depot
984,984,Newton,"7 North Park Dr., Newton NJ 07860","7 North Park Dr., Newton NJ",Newton,NJ,7860,41.066,-74.751,yes,https://serpapi.com/home-depot-stores-us.json,https://simplemaps.com/data/business/home-depot
989,989,Cherry Hill,,,Cherry Hill,NJ,0,39.922,-75.039,no,,https://simplemaps.com/data/business/home-depot
1001,1001,Turlock,"2800 Countryside Dr, Turlock CA 95380","2800 Countryside Dr, Turlock CA",Turlock,CA,95380,37.519,-120.878,yes,https://serpapi.com/home-depot-stores-us.json,https://simplemaps.com/data/business/home-depot
1002,1002,Huntington Park,"3040 Slauson Ave, Huntington Park CA 90255","3040 Slauson Ave, Huntington Park CA",Huntington Park,CA,90255,33.988,-118.215,yes,https://serpapi.com/home-depot-stores-us.json,https://simplemaps.com/data/business/home-depot
1003,1003,Meadowview,"1461 Meadowview Rd, Meadowview CA 95832","1461 Meadowview Rd, Meadowview CA",Sacramento,CA,95832,38.483,-121.503,yes,https://serpapi.com/home-depot-stores-us.json,https://simplemaps.com/data/business/home-depot
1005,1005,San Pedro,"2115 N Gaffey St, San Pedro CA 90731","2115 N Gaffey St, San Pedro CA",San Pedro,CA,90731,33.765,-118.295,yes,https://serpapi.com/home-depot-stores-us.json,https://simplemaps.com/data/business/home-depot
1006,1006,Manteca,"250 Commerce Ave, ManteCA CA 95336","250 Commerce Ave, ManteCA CA",Manteca,CA,95336,37.795,-121.192,yes,https://serpapi.com/home-depot-stores-us.json,https://simplemaps.com/data/business/home-depot
1007,1007,Oakland,"4000 Alameda Ave, Oakland CA 94601","4000 Alameda Ave, Oakland CA",Oakland,CA,94601,37.769,-122.224,yes,https://serpapi.com/home-depot-stores-us.json,https://simplemaps.com/data/business/home-depot
1009,1009,Hillsdale,"1855 Hillsdale Ave, Hillsdale CA 95124","1855 Hillsdale Ave, Hillsdale CA",San Jose,CA,95124,37.263,-121.921,yes,https://serpapi.com/home-depot-stores-us.json,https://simplemaps.com/data/business/home-depot
1010,1010,Inglewood,"3363 Century Blvd, Inglewood CA 90303","3363 Century Blvd, Inglewood CA",Inglewood,CA,90303,33.947,-118.331,yes,https://serpapi.com/home-depot-stores-us.json,https://simplemaps.com/data/business/home-depot
1012,1012,Camarillo,"401 W Ventura Blvd, Camarillo CA 93010","401 W Ventura Blvd, Camarillo CA",Camarillo,CA,93010,34.218,-119.079,yes,https://serpapi.com/home-depot-stores-us.json,https://simplemaps.com/data/business/home-depot
1013,1013,Redlands,"1151 W Lugoina Ave, Redlands CA 92374","1151 W Lugoina Ave, Redlands CA",Redlands,CA,92374,34.069,-117.198,yes,https://serpapi.com/home-depot-stores-us.json,https://simplemaps.com/data/business/home-depot
1014,1014,N Fresno,"7150 N Abbey St, N Fresno CA 93720","7150 N Abbey St, N Fresno CA",Fresno,CA,93720,36.841,-119.787,yes,https://serpapi.com/home-depot-stores-us.json,https://simplemaps.com/data/business/home-depot
1017,1017,Hayward,"21787 Hesperian Blvd, Hayward CA 94541","21787 Hesperian Blvd, Hayward CA",Hayward,CA,94541,37.663,-122.118,yes,https://serpapi.com/home-depot-stores-us.json,https://simplemaps.com/data/business/home-depot
